,id,City,Address,lat,lon
1,4,Bryan,"775, Inwood Drive, Bryan, Brazos County, Texas, 77802, USA",30.63730428,-96.33784597
2,6,Conroe,"9163, Red Stag, Montgomery County, Texas, 77303, USA",30.3704552,-95.38531904
3,8,Fort Worth,"4974, Glen Eden Drive, Fort Worth, Tarrant County, Texas, 76115, USA",32.68961141,-97.29816086
4,9,Rockport,"North Fulton Beach Road, Copano Village, Aransas County, Texas, 78358, USA",28.10372572,-97.02583209
5,11,Irving,"3841, Cheyenne Street, Irving, Dallas County, Texas, 75038, USA",32.86211601,-97.00264291
6,13,Round Mountain,"Nicholson Bluff Cv, Travis County, Texas, USA",30.35200485,-98.14624215
7,15,Kerrville,"699, Methodist Encampment Road, Kerrville, Kerr County, Texas, 78028, USA",30.07366703,-99.16136522
8,17,Austin,"F T and Belle Ramsey House, Avenue B, Hyde Park, Austin, Travis County, Texas, 78751, USA",30.309522,-97.73171047
9,18,Port Aransas,"800, Sandcastle Drive, Port Aransas, Aransas County, Texas, 78373, USA",27.81717552,-97.06809015
10,19,Houston,"13009, Sweetgum Shores Drive, Harmaston, Harris County, Texas, 77044, USA",29.95468009,-95.17607029
11,20,Frisco,"12363, Redbud Lane, Denton County, Texas, 75034, USA",33.15577622,-96.9304385
12,24,Katy,"James and Sharon Tays Junior High, 26721, Hawks Prairie Boulevard, Silver Ranch, Fort Bend County, Texas, 77494, USA",29.74070352,-95.82587851
13,25,Denton,"Nirvana Smoke Shop, 215, North Carroll Boulevard, Denton, Denton County, Texas, 76201, USA",33.21614026,-97.13775675
14,27,Richmond,"17498, Aspen Ridge Court, Twin Oaks Village, Fort Bend County, Texas, 77407, USA",29.69552664,-95.69011086
15,29,Austin,"2414, Kinney Road, Zilker, Austin, Travis County, Texas, 78704, USA",30.24429616,-97.77446858
16,31,Plano,"7951, Whispering Tree Lane, Plano, Collin County, Texas, 75024, USA",33.08495329,-96.78346949
17,32,Houston,"984, Villa de Matel Road, Houston, Harris County, Texas, 77023, USA",29.729391,-95.31251441
18,33,Arlington,"2244, Mediterranean Avenue, Arlington, Tarrant County, Texas, 76011, USA",32.77038954,-97.09001198
19,34,Austin,"2100, Rockmoor Avenue, The Doke, Austin, Travis County, Texas, 78703, USA",30.30038194,-97.77885789
20,35,Breckenridge,"Stephens County, Texas, USA",32.79998006,-98.84432664
21,36,Houston,"21733, Rio Villa Drive, Highlands, Harris County, Texas, 77049, USA",29.82627834,-95.07823934
22,37,Spicewood,"3721, Outback Trail, Travis County, Texas, 78669, USA",30.3877095,-98.09081262
23,38,Austin,"1603, Poquito Street, East Austin, Austin, Travis County, Texas, 78702, USA",30.27752338,-97.71919076
24,39,Fort Worth,"Wedgewood Nursing Home, 6621, Dan Danciger Road, Fort Worth, Tarrant County, Texas, 76133, USA",32.64994648,-97.4059862
25,40,Dallas,"Penuel Seventh Day Adventist Church, Bernal Drive, Dallas, Dallas County, Texas, 75212, USA",32.78663646,-96.87466869
26,41,Killeen,"4475, Menard Drive, Killeen, Bell County, Texas, 76549, USA",31.08831396,-97.77755412
27,42,New Braunfels,"448, Napoleon Street, New Braunfels, Comal County, Texas, 78130, USA",29.70471393,-98.12010313
28,43,Abilene,"South Leggett Drive, Abilene, Taylor County, Texas, 79605, USA",32.43616081,-99.77400979
29,44,Houston,"6994, Marisol Drive, Harris County, Texas, 77083, USA",29.70389701,-95.66395341
30,45,Abilene,"1351, Squires Road, Abilene, Taylor County, Texas, 79602, USA",32.43781002,-99.69983992
31,46,Austin,"14511, Deaf Smith Boulevard, Chaparral Crossing, Hornsby Bend, Travis County, Texas, 78725, USA",30.23294081,-97.58937812
32,47,Fort Worth,"1012, Garvey Street, Fort Worth, Tarrant County, Texas, 76102, USA",32.76650721,-97.32873671
33,48,Marble Falls,"WorldMark Marble Falls, Rocky Road, Marble Falls, Burnet County, Texas, 76654, USA",30.55111868,-98.28646131
34,49,Pasadena,"4381, Winterborne Drive, Village Grove, Pasadena, Harris County, Texas, 77505, USA",29.64732251,-95.13905355
35,50,College Station,"887, Marion Pugh Drive, Callaway Villas, College Station, Brazos County, Texas, 77840, USA",30.5976927,-96.33721105
36,51,San Antonio,"Connally Loop, San Antonio, Bexar County, Texas, 78217, USA",29.51605277,-98.43504461
37,52,Allen,"412, Irvine Drive, Watters Creek, Allen, Collin County, Texas, 75013, USA",33.09533497,-96.70009475
38,53,Bandera,"415, 1st Street, Bandera, Bandera County, Texas, 78003, USA",29.717039,-99.08212066
39,54,Humble,"7698, Desco Drive, Bordersville, Harris County, Texas, 77338, USA",30.01937977,-95.30818795
40,55,San Antonio,"Adobe Long House, East César E. Chávez Boulevard, Lavaca, San Antonio, Bexar County, Texas, 78206, USA",29.41542956,-98.48159614
41,56,Humble,"Pearson Carpet Care, 525, North Houston Avenue, Humble, Harris County, Texas, 77338, USA",30.00094259,-95.25816793
42,57,Fort Worth,"Amaranth Drive, Fort Worth, Tarrant County, Texas, 76428, USA",32.91753279,-97.33690001
43,58,Katy,"2733, Sable Ridge Lane, Parkway Oaks, Cinco Ranch, Fort Bend County, Texas, 77494, USA",29.75028228,-95.79191395
44,59,Irving,"Irving, Dallas County, Texas, 75039, USA",32.88088953,-96.94281767
45,61,Katy,"25546, Saddlebrook Way, Cinco Ranch, Fort Bend County, Texas, 77494, USA",29.75547877,-95.78899633
46,62,League City,"846, Davis Road, League City, Galveston County, Texas, 77573, USA",29.53971075,-95.07518536
47,66,Conroe,"754, Stonewall Jackson Drive, River Plantation, Montgomery County, Texas, 77302, USA",30.2447258,-95.4382271
48,67,San Antonio,"4336, Dauphine Drive, San Antonio, Bexar County, Texas, 78218, USA",29.48241384,-98.41001528
49,69,Concan,"Mountain Valley Road, Third Crossing, Uvalde County, Texas, 78838, USA",29.53213067,-99.69302161
50,71,Austin,"507, West Alpine Road, Dawson, Austin, Travis County, Texas, 78704, USA",30.23038507,-97.76581095
51,72,San Antonio,"8783, Tesoro Drive, San Antonio, Bexar County, Texas, 78217, USA",29.52007905,-98.45505578
52,75,Spring,"23206, Hill Creek Road, Harris County, Texas, 77373, USA",30.05041737,-95.34459326
53,79,College Station,"2977, Normand Drive, Southwood Valley, College Station, Brazos County, Texas, 77845, USA",30.58726186,-96.29515158
54,81,College Station,"2385, Colgate Circle, Castle Rock Apartments, College Station, Brazos County, Texas, 77840, USA",30.6133901,-96.30687282
55,82,Plano,"6899, Abernathy Street, Plano, Collin County, Texas, 75074, USA",33.067471,-96.6636928
56,83,Fort Worth,"5525, Eastwedge Drive, Fort Worth, Tarrant County, Texas, 76137, USA",32.88156439,-97.2658547
57,85,Austin,"6711, Modesto Street, Abercrombie, Austin, Travis County, Texas, 78757, USA",30.34285933,-97.73598704
58,86,Houston,"1428, Trailwood Village Drive, Houston, Harris County, Texas, 77339, USA",30.03683572,-95.22608777
59,87,San Antonio,"Camino Haven, The Enclave At Stonehaven, Bexar County, Texas, 78255, USA",29.70627939,-98.63299228
60,88,Irving,"3809, Flintridge Drive, Irving, Dallas County, Texas, 75038, USA",32.86410161,-96.99892108
61,89,Katy,"23367, Leaf Ridge Drive, Cinco Ranch, Fort Bend County, Texas, 77494, USA",29.75443391,-95.77315946
62,90,New Braunfels,"North Guenther Avenue, New Braunfels, Comal County, Texas, 78130, USA",29.70090884,-98.131561
63,91,Buchanan Dam,"98, Trinidad Street, Buchanan Dam, Llano County, Texas, 78609, USA",30.75022481,-98.41572007
64,92,Humble,"9498, Greencape Court, Dyersdale, Harris County, Texas, 77396, USA",29.92953838,-95.25096238
65,93,Baytown,"1908, North Main Street, Baytown, Harris County, Texas, 77520, USA",29.74584661,-94.96355953
66,95,Irving,"1955, Cloverleaf Lane, Irving, Dallas County, Texas, 75061, USA",32.83240526,-96.98926843
67,96,Bryan,"3669, Forestwood Drive, Saddlewood Apartments, Bryan, Brazos County, Texas, 77801, USA",30.6301763,-96.36748443
68,97,Houston,"Lowe's, Plum Creek Terrace Lane, Houston, Harris County, Texas, 77087, USA",29.69799127,-95.29893196
69,98,Eustace,"5798, County Road 1423, Henderson County, Texas, 75124, USA",32.22713635,-95.99408655
70,99,Conroe,"426, Oak Stream Drive, Conroe, Montgomery County, Texas, 77304, USA",30.28228127,-95.48712678
71,100,Colleyville,"5699, Texas Trail, Colleyville, Tarrant County, Texas, 76034, USA",32.89039189,-97.18186807
72,101,Mabank,"Sunray Street, Henderson County, Texas, 75156, USA",32.25334064,-96.0807898
73,102,Cibolo,"Schertz, Guadalupe County, Texas, 78108, USA",29.62122809,-98.22315851
74,103,New Braunfels,"176, Lakeview Boulevard, Landa Park Highlands, New Braunfels, Comal County, Texas, 78130, USA",29.716016,-98.13737076
75,107,Allen,"1518, Pine Bluff Drive, Allen, Collin County, Texas, 75002, USA",33.09131167,-96.6306321
76,108,Pipe Creek,"175, Mountain View Lane, Bandera County, Texas, 78063, USA",29.72770471,-98.86898766
77,109,Houston,"8620, Findlay Street, Houston, Harris County, Texas, 77017, USA",29.69300158,-95.26477971
78,110,College Station,"1503, Pine Ridge Drive, College Station, Brazos County, Texas, 77840, USA",30.60723597,-96.31728311
79,111,Houston,"2301, Congress Street, Houston, Harris County, Texas, 77003, USA",29.75561922,-95.34945333
80,112,Austin,"Velasquez Sports Complex, Lady Bird Lake Hike and Bike Trail, Lakeshore, Austin, Travis County, Texas, 78741, USA",30.24962237,-97.72215443
81,113,Katy,"2309, Horned Owl Drive, Hawks Landing, Fort Bend County, Texas, 77494, USA",29.74270525,-95.82376819
82,115,Dallas,"2008, Greenville Avenue, Lower Greenville, Dallas, Dallas County, Texas, 75206, USA",32.81433689,-96.76974606
83,116,Haltom City,"Fossil Ridge Drive, Haltom City, Tarrant County, Texas, 76136, USA",32.85314505,-97.27746618
84,117,Navasota,"360, Gibbs Street, Navasota, Grimes County, Texas, 77868, USA",30.38250015,-96.08396984
85,118,College Station,"Triumph Court, College Station, Brazos County, Texas, 77845, USA",30.56283264,-96.29118908
86,119,College Station,"738, Park Place, Callaway Villas, College Station, Brazos County, Texas, 77840, USA",30.60461863,-96.33028067
87,120,South Padre Island,"2028, Gulf Boulevard, South Padre Island, Cameron County, Texas, 78597, USA",26.0988938,-97.16416098
88,121,Dallas,"1344, Stewart Drive, Bishop Arts District, Dallas, Dallas County, Texas, 75208, USA",32.75532904,-96.84328076
89,122,Houston,"8076, Grafton Street, Houston, Harris County, Texas, 77017, USA",29.69217133,-95.27834702
90,123,Corpus Christi,"Third Coast Beach Company, Headsail Avenue, Mustang-Padre Island, Corpus Christi, Nueces County, Texas, USA",27.61934852,-97.22201559
91,124,Granbury,"1402, South Chisholm Trail, Mambrino, Hood County, Texas, 76048, USA",32.39882076,-97.75762567
92,125,Houston,"5539, Hillman Street, Plaza Santa Clara, Houston, Harris County, Texas, 77023, USA",29.72643595,-95.31921338
93,126,San Antonio,"1036, Thrush Ridge, San Antonio, Bexar County, Texas, 78248, USA",29.59687123,-98.52481313
94,127,Arlington,"6203, Castle Creek Road, Kennedale, Tarrant County, Texas, 76017, USA",32.66199838,-97.2060795
95,128,Dallas,"3916, Congress Avenue, Oak Lawn, Dallas, Dallas County, Texas, 75219, USA",32.80786908,-96.81199591
96,129,Port Aransas,"763, Access Rd 1-A, Mustang Beach, Port Aransas, Aransas County, Texas, 78373, USA",27.80544277,-97.08199531
97,130,Round Rock,"1609, Corn Hill Lane, Turtle Creek Village, Round Rock, Williamson County, Texas, 78664, USA",30.50945534,-97.65806608
98,131,Sweeny,"TX 35;FM 524, Old Ocean, Brazoria County, Texas, 77463, USA",29.08708319,-95.72306648
99,132,Euless,"239, Buckingham Avenue, Euless, Tarrant County, Texas, 76040, USA",32.8353312,-97.1085319
100,133,Plano,"Ridgeview Ranch Golf Club, Plano, Collin County, Texas, 75025, USA",33.11878882,-96.73917725
101,134,College Station,"Smetana, Brazos County, Texas, 77807, USA",30.62100356,-96.44929926
102,135,Humble,"Hampton Hills Drive, Laurel Place, Moonshine Hill, Harris County, Texas, 77338:77346, USA",29.98656912,-95.22818386
103,136,Conroe,"14895, Greenbough, Bennette Estates, Grangerland, Montgomery County, Texas, 77302, USA",30.20567661,-95.35012473
104,137,Frisco,"11550, Clipper Circle, Stewart Peninsula, Denton County, Texas, 75034, USA",33.11616758,-96.92762318
105,138,Sealy,"Beckendorff Road, Rexville, Austin County, Texas, 77474, USA",29.70852238,-96.22426265
106,139,San Antonio,"1489, Blackbridge, The Woods, Bexar County, Texas, 78253, USA",29.44439593,-98.71742703
107,140,Fort Worth,"3928, Clarke Avenue, Fort Worth, Tarrant County, Texas, 76107, USA",32.74822997,-97.37647856
108,141,San Antonio,"4601, Emory Oak Woods, Woods of Shavano, San Antonio, Bexar County, Texas, 78249, USA",29.58112385,-98.57656207
109,142,College Station,"Harvey Road, Summit Crossing, College Station, Brazos County, Texas, 77840, USA",30.64207031,-96.28920321
110,143,Houston,"5814, Effingham Drive, Houston, Harris County, Texas, 77035, USA",29.6465198,-95.48921278
111,146,Brenham,"1885, FM 50, Independence, Washington County, Texas, 77833, USA",30.2006913,-96.36471719
112,147,San Antonio,"4317, Parkwood Drive, San Antonio, Bexar County, Texas, 78218, USA",29.48217334,-98.40900329
113,148,Schertz,"Gettysburg Drive, The Village Subdivision Unit 4, Schertz, Guadalupe County, Texas, 78154, USA",29.55967872,-98.25797103
114,149,Carrollton,"Lakecrest Court, Carrollton, Dallas County, Texas, 75006, USA",32.96345053,-96.85590903
115,150,New Ulm,"Track Road, New Ulm, Austin County, Texas, 78950, USA",29.89822345,-96.50467836
116,151,Hempstead,"Pierceall Road, Pine Island, Waller County, Texas, 77445, USA",30.04281773,-96.04410223
117,152,Fayetteville,"Fayetteville High School, 618, North Rusk Street, Fayetteville, Fayette County, Texas, 78940, USA",29.9042624,-96.68324071
118,153,Fort Worth,"Forest Park Boulevard, Fort Worth, Tarrant County, Texas, 76102, USA",32.75373575,-97.34248488
119,154,Montgomery,"Lake Estates Drive, Lake Estates, Montgomery County, Texas, 77356, USA",30.40323913,-95.61173104
120,156,Richmond,"10475, Shanley Trace Lane, Shiloh Lake Estates, Fort Bend County, Texas, 77407, USA",29.6610122,-95.68753793
121,157,Cleburne,"4841, Looney Lane, Egan, Johnson County, Texas, 76031, USA",32.47382302,-97.28549216
122,158,New Braunfels,"692, Comal Avenue, New Braunfels, Comal County, Texas, 78130, USA",29.69792115,-98.11524852
123,159,New Braunfels,"Comal River, South Gilbert Avenue, New Braunfels, Comal County, Texas, 78130, USA",29.7068023,-98.12265949
124,160,Kemah,"722, 6th Street, Kemah, Galveston County, Texas, 77565, USA",29.54380153,-95.0170362
125,161,Irving,"456, Lacebark Drive, Valley Ranch, Irving, Dallas County, Texas, 75063, USA",32.91786622,-96.95068721
126,163,Austin,"216, East 4th Street, Downtown, Austin, Travis County, Texas, 78701, USA",30.26594744,-97.74144275
127,164,Concan,"Third Crossing, Uvalde County, Texas, 78838, USA",29.54128208,-99.69037872
128,165,Richmond,"399, Waterside Estates Circle, Waterside Estates, Pecan Grove, Fort Bend County, Texas, 77406, USA",29.64864295,-95.7353304
129,166,Austin,"6017, Salcon Cliff Drive, Legend Oaks, Austin, Travis County, Texas, 78749, USA",30.20515821,-97.8782895
130,167,College Station,"Carriker Court, Royder, Brazos County, Texas, 77881, USA",30.51712322,-96.30567554
131,177,Corpus Christi,"Comfort Inn And Suites, Windward Drive, Mustang-Padre Island, Corpus Christi, Nueces County, Texas, USA",27.6048345,-97.21074843
132,179,Houston,"3025, Taft Street, Houston, Harris County, Texas, 77006, USA",29.74485117,-95.38589969
133,184,Richmond,"17459, Hanoverian Drive, Shiloh Lake Estates, Fort Bend County, Texas, 77407, USA",29.659386,-95.69020939
134,185,Austin,"4501, Gillis Street, South Manchaca, Austin, Travis County, Texas, 78745, USA",30.22363485,-97.78329845
135,186,Austin,"1301, Cedar Avenue, Chestnut, Austin, Travis County, Texas, 78722, USA",30.2759184,-97.71321066
136,187,Dallas,"2629, Millmar Drive, Dallas, Dallas County, Texas, 75228, USA",32.82679167,-96.67012107
137,188,Austin,"2918, East Martin Luther King Jr Boulevard, Chestnut, Austin, Travis County, Texas, 78722, USA",30.28283226,-97.70820152
138,189,Bridge City,"Orange County, Texas, USA",30.03761263,-93.8103071
139,190,Dallas,"5426, McCommas Boulevard, Knox, Dallas, Dallas County, Texas, 75206, USA",32.82957241,-96.77609658
140,191,Lago Vista,"3404, American Drive, Lago Vista, Travis County, Texas, 78645, USA",30.44054759,-98.02017659
141,192,Rockport,"588, Newcomb Bend Loop, Holiday Beach, Aransas County, Texas, 78382, USA",28.16218221,-97.01599643
142,193,Tow,"1221, Manor Street, Buchanan Lake Village, Llano County, Texas, 78672, USA",30.85041949,-98.44988581
143,194,Rockport,"North Fulton Beach Road, Fulton, Aransas County, Texas, 78358, USA",28.100134,-97.03050334
144,195,Bridgeport,"Rickels, Wise County, Texas, 76426, USA",33.16989692,-97.85160453
145,196,Kingsville,"906, West Lee Avenue, Kingsville, Kleberg County, Texas, 78363, USA",27.52007545,-97.87982068
146,197,Kyle,"Plum Creek Golf Course, 4301, Benner, Kyle, Hays County, Texas, 78640, USA",30.01653024,-97.87897809
147,198,Houston,"1632, Kipling Street, Houston, Harris County, Texas, 77006, USA",29.74051972,-95.40024893
148,199,San Antonio,"23718, I-10 Frontage Road, Leon Springs, San Antonio, Bexar County, Texas, 78257, USA",29.66329734,-98.62682747
149,200,Dallas,"Uptown PID, Dallas, Dallas County, Texas, 75204, USA",32.80743307,-96.79499383
150,201,Killeen,"5499, Donegal Bay Court, Killeen, Bell County, Texas, 76549, USA",31.08205155,-97.80998783
151,202,Converse,"4015, Mistflower Drive, Bexar County, Texas, 78109, USA",29.46611326,-98.32325103
152,203,Lakeway,"718, Bermuda Street, Lakeway, Travis County, Texas, 78734, USA",30.3712411,-97.98738926
153,204,Corpus Christi,"354, Naples Street, Coopers Alley L-Head, Downtown, Corpus Christi, Nueces County, Texas, 78404, USA",27.77152417,-97.39531271
154,205,Dallas,"6006, Mercedes Avenue, Lower Greenville, Dallas, Dallas County, Texas, 75214, USA",32.82768128,-96.76334642
155,206,Fort Worth,"2417, Westbrook Avenue, Fort Worth, Tarrant County, Texas, 76111, USA",32.77950286,-97.31058639
156,207,Brenham,"Edgar Matchett House, West Main Street, Brenham, Washington County, Texas, 77833, USA",30.1662184,-96.40225125
157,208,Galveston,"DoubleTree by Hilton Hotel Galveston Beach, Avenue O ½, Galveston, Galveston County, Texas, 77550, USA",29.29448803,-94.78369067
158,209,Terlingua,"Indian Head Road, Study Butte, Brewster County, Texas, USA",29.33986422,-103.5259311
159,210,Corpus Christi,"15004, Leeward Drive, Mustang-Padre Island, Corpus Christi, Nueces County, Texas, 78418, USA",27.60545708,-97.21130202
160,211,Houston,"1398, Stanford Street, Houston, Harris County, Texas, 77019, USA",29.75484482,-95.38913101
161,212,Euless,"Fountainview Drive, Euless, Tarrant County, Texas, 76039, USA",32.86431109,-97.08096908
162,213,Houston,"4190, Westpark Drive, Houston, Harris County, Texas, 77027, USA",29.72758048,-95.44585328
163,214,Bastrop,"A. A. Erhard House, Pecan Street, Bastrop, Bastrop County, Texas, 78602, USA",30.11212414,-97.31763093
164,215,San Antonio,"1572, Moonlit Grove, Wetmore, San Antonio, Bexar County, Texas, 78247, USA",29.57813711,-98.43065619
165,216,Buchanan Dam,"180, North Greenwool Drive, Golden Beach, Llano County, Texas, 78609, USA",30.80317036,-98.46823953
166,217,Houston,"2734, Mason Street, Houston, Harris County, Texas, 77006, USA",29.74603384,-95.38480976
167,218,River Oaks,"1315, Banks Street, River Oaks, Tarrant County, Texas, 76114, USA",32.78062233,-97.38818431
168,219,Austin,"3216, Pearce Road, Austin, Travis County, Texas, 78730, USA",30.33816909,-97.82413058
169,220,League City,"League City, Galveston County, Texas, 77573, USA",29.48554549,-95.0843968
170,221,Saginaw,"893, Willow Court, Saginaw, Tarrant County, Texas, 76179, USA",32.85276234,-97.37723606
171,222,Belton,"781, East Avenue O, Belton, Bell County, Texas, 76513, USA",31.04230373,-97.46023665
172,223,Houston,"658, Harold Street, Houston, Harris County, Texas, 77006, USA",29.74181448,-95.38729022
173,224,Arlington,"2012, North Davis Drive, Arlington, Tarrant County, Texas, 76012, USA",32.76776958,-97.12382879
174,225,Arlington,"3420, Redstone Drive, Arlington, Tarrant County, Texas, 76001, USA",32.64135699,-97.16317067
175,226,Katy,"25661, Tower Side Lane, Sedona, Cinco Ranch, Fort Bend County, Texas, 77494, USA",29.70415124,-95.82280558
176,227,Austin,"905, East 7th Street, East Sixth, Austin, Travis County, Texas, 78702, USA",30.26611565,-97.7327258
177,228,McKinney,"6988, Wind Row Drive, McKinney, Collin County, Texas, 75070, USA",33.15732832,-96.70865246
178,229,Bandera,"205, 10th Street, Bandera, Bandera County, Texas, 78003, USA",29.722388,-99.07181852
179,230,Houston,"Walmart Neighborhood Market, 9700, Hillcroft Avenue, Houston, Harris County, Texas, 77096, USA",29.67438932,-95.49536038
180,231,Canyon,"White Fence Road, Randall County, Texas, 79016, USA",35.02061454,-101.9001074
181,232,Temple,"4763, Arrowhead Drive, Temple, Bell County, Texas, 76502, USA",31.08315027,-97.4021393
182,233,Austin,"2102, Keepsake Drive, Grand Oaks, Austin, Travis County, Texas, 78748, USA",30.18835401,-97.81606795
183,234,Little Elm,"3775, Misty Cove, Little Elm, Denton County, Texas, 75068, USA",33.15256985,-96.96912275
184,235,Richmond,"Victoria Springs Drive, Sonoma Ridge, Fort Bend County, Texas, 77407, USA",29.68569362,-95.72351852
185,236,League City,"3102, Sand Reef Lane, Bay Ridge, League City, Galveston County, Texas, 77573, USA",29.50904258,-95.03171378
186,237,Galveston,"Galveston City Hall, Rosenberg Avenue - 25th Street, Galveston, Galveston County, Texas, 77553, USA",29.30142486,-94.79507861
187,238,Rockport,"792, Copano Cove Road, Aransas County, Texas, 78382, USA",28.07069945,-97.10866929
188,239,Houston,"345, Drennan Street, Houston, Harris County, Texas, 77003, USA",29.74678384,-95.33610475
189,240,Corpus Christi,"Corpus Christi North Beach, Corpus Christi Beach Walk, Peoples Street T-Head, Downtown, Corpus Christi, Nueces County, Texas, 78402, USA",27.82631852,-97.38456603
190,241,League City,"901, Ponte Serena Drive, The Lakes at South Shore Harbor, League City, Galveston County, Texas, 77573, USA",29.51437679,-95.05881077
191,242,Tool,"Tool, Henderson County, Texas, USA",32.30601165,-96.17988225
192,243,South Padre Island,"193, Pike Street, South Padre Island, Cameron County, Texas, 78597, USA",26.10259094,-97.16508523
193,244,Dallas,"2122, North Peak Street, Lower Greenville, Dallas, Dallas County, Texas, 75204, USA",32.80439082,-96.78496543
194,245,Sugar Land,"6762, Charlton Street, Telfair, Sugar Land, Fort Bend County, Texas, 77479, USA",29.58141125,-95.65816858
195,246,Rockport,"54, Nassau Drive, Key Allegro, Rockport, Aransas County, Texas, 78382, USA",28.04548923,-97.02933703
196,247,San Antonio,"A.R.T. Massage Body Spa, 215, West Sunset Road, Oak Park, San Antonio, Bexar County, Texas, 78209, USA",29.50823937,-98.46991898
197,248,Denton,"East Windsor Drive, Denton, Denton County, Texas, 76209, USA",33.24276568,-97.11244473
198,249,Galveston,"Maravilla Resort Condominiums, 9520, Seawall Boulevard, Galveston, Galveston County, Texas, 77551, USA",29.24702215,-94.85914419
199,250,Galveston,"3623, Avenue S ½, Galveston, Galveston County, Texas, 77550, USA",29.28171507,-94.80228138
200,251,Seabrook,"4464, Spoonbill Drive, Seabrook, Harris County, Texas, 77586, USA",29.58307462,-95.01420299
201,252,Rogers,"12431, Reeds Lake Loop, Academy, Bell County, Texas, 76569, USA",30.9665972,-97.31752936
202,253,Rockport,"Salt Lake, Salt Lake Road, Copano Village, Aransas County, Texas, 78381, USA",28.07749649,-97.09183996
203,254,Houston,"Stanton's City Bites, 1420, Edwards Street, North Inner Loop, Houston, Harris County, Texas, 77007, USA",29.77073164,-95.37220398
204,255,Fort Worth,"1812, Tremont Avenue, Fort Worth, Tarrant County, Texas, 76107, USA",32.74194821,-97.38246834
205,256,Harker Heights,"1627, Inca Drive, Harker Heights, Bell County, Texas, 76548, USA",31.06351199,-97.63620315
206,257,Austin,"4908, Alf Avenue, Johnston Terrace, Austin, Travis County, Texas, 78721, USA",30.26704789,-97.68989589
207,258,Terlingua,"Terlingua Ranch Road, Brewster County, Texas, 79852, USA",29.49263134,-103.3699133
208,259,Austin,"713, Brownlee Circle, Clarksville, Austin, Travis County, Texas, 78703, USA",30.27456699,-97.7580592
209,260,Houston,"8499, Hearth Drive, Houston, Harris County, Texas, 77054, USA",29.68086261,-95.41870216
210,261,Arlington,"Spring Hill Suites, East Lamar Boulevard, Arlington, Tarrant County, Texas, 76011, USA",32.76386606,-97.07894896
211,262,Hickory Creek,"1140, Point Vista Road, Hickory Creek, Denton County, Texas, 75065, USA",33.11962689,-97.03793115
212,263,Grapevine,"The Church of Jesus Christ of Latter-day Saints, 1143, Butterfield Drive, Grapevine, Tarrant County, Texas, 76051, USA",32.94863427,-97.06999168
213,264,Buda,"149, Feathergrass Drive, Green Meadows, Buda, Hays County, Texas, 78610, USA",30.05988156,-97.8143251
214,265,Dallas,"4333, McKinney Avenue, Knox, Knox Street PID, Dallas, Dallas County, Texas, 75205, USA",32.81926424,-96.78957175
215,266,College Station,"1596, Welsh Avenue, Callaway Villas, College Station, Brazos County, Texas, 77840, USA",30.59607091,-96.32442712
216,267,Houston,"El Camino Real, Houston, Harris County, Texas, 77062, USA",29.58231323,-95.14569045
217,268,Canton,"4288, Farm-to-Market Road 1651, Whitton, Van Zandt County, Texas, 75103, USA",32.47332279,-95.90929916
218,269,Austin,"206, Clearday Drive, Buckingham Ridge, Austin, Travis County, Texas, 78745, USA",30.19237135,-97.7816127
219,270,Austin,"5714, Lark Creek Drive, Southeast Austin, Austin, Travis County, Texas, 78744, USA",30.1925213,-97.73138523
220,271,Celina,"4853, County Road 179, Weston, Collin County, Texas, 75009, USA",33.39699026,-96.66455138
221,272,College Station,"The Tradition at Northgate, Boyett Street, Saddlewood Apartments, Bryan, Brazos County, Texas, 77840, USA",30.61890295,-96.34894008
222,273,Corpus Christi,"4020, Claudia Drive, Flour Bluff, Corpus Christi, Nueces County, Texas, 78418, USA",27.61486949,-97.29735892
223,274,Fort Worth,"6945, Valhalla Road, Fort Worth, Tarrant County, Texas, 76116, USA",32.70349556,-97.43390055
224,275,Galveston,"Gulf Health Care Center, Cove View Circle, Galveston, Galveston County, Texas, 77551, USA",29.24626901,-94.86695397
225,276,Harker Heights,"3656, Blanco Drive, Harker Heights, Bell County, Texas, 76548, USA",31.03481406,-97.64290786
226,277,Dallas,"8747, Tudor Place, Dallas, Dallas County, Texas, 75228, USA",32.81346713,-96.69909915
227,278,Temple,"Forrester Road, Hobbs, Bell County, Texas, 76502, USA",31.03456989,-97.40999289
228,279,White Settlement,"Sunset Court, White Settlement, Tarrant County, Texas, 76108, USA",32.74400632,-97.47084844
229,280,Austin,"9409, Southwick Drive, The Woodlands, Austin, Travis County, Texas, 78724, USA",30.27640783,-97.62591641
230,281,Houston,"Maria Selma, Richmond Avenue, Houston, Harris County, Texas, 77098, USA",29.73405552,-95.40029763
231,282,Roanoke,"15617, Yarberry Drive, Fort Worth, Denton County, Texas, 76262, USA",33.01415608,-97.26560701
232,283,Fort Worth,"4000, Mattison Avenue, Fort Worth, Tarrant County, Texas, 76107, USA",32.74981109,-97.37726356
233,285,Grapevine,"1880, Greenhaven, Grapevine, Tarrant County, Texas, 76051, USA",32.88470079,-97.09228608
234,286,Galveston,"3519, Avenue P ½, Galveston, Galveston County, Texas, 77550, USA",29.28743459,-94.80304103
235,287,Fort Worth,"8828, Tyne Trail, Fort Worth, Tarrant County, Texas, 76118, USA",32.79677242,-97.18844706
236,288,Corpus Christi,"1100, Clarion Drive, Bay Area, Corpus Christi, Nueces County, Texas, 78412, USA",27.70556469,-97.34728353
237,289,Corpus Christi,"778, Lansdown Drive, Bay Area, Corpus Christi, Nueces County, Texas, 78412, USA",27.7227431,-97.37313063
238,290,College Station,"464, Brentwood Drive East, Castle Rock Apartments, College Station, Brazos County, Texas, 77840, USA",30.61248624,-96.30527736
239,291,Fort Worth,"2208, Hawthorne Avenue, Fort Worth, Tarrant County, Texas, 76110, USA",32.72065648,-97.34999946
240,293,Dallas,"2008, Browder Street, South Dallas-Fair Park PID, Dallas, Dallas County, Texas, 75215, USA",32.76778958,-96.78739315
241,294,Dallas,"Ellis Street, Uptown PID, Dallas, Dallas County, Texas, 75204, USA",32.79816318,-96.79518007
242,296,Horseshoe Bay,"199, Oasis, Horseshoe Bay, Llano County, Texas, 78657, USA",30.54917047,-98.35774254
243,297,Denton,"3045, Weston Drive, Denton, Denton County, Texas, 76209, USA",33.21989289,-97.09816456
244,298,Austin,"Dell Seton Medical Center at The University of Texas, 1500, Red River Street, Medical District, Austin, Travis County, Texas, 78701, USA",30.27661265,-97.73461312
245,299,Edom,"Midway, Van Zandt County, Texas, USA",32.37470046,-95.5383926
246,300,Paige,"US 290, Paige, Bastrop County, Texas, USA",30.22492888,-97.16658131
247,304,Arlington,"Edgestone Place, Arlington, Tarrant County, Texas, 76005, USA",32.78569233,-97.10252134
248,305,Llano,"Sandy Harbor, Llano County, Texas, USA",30.57664316,-98.47100432
249,307,Austin,"8605, Danville Drive, Heritage Hills, Austin, Travis County, Texas, 78753, USA",30.34622132,-97.6876224
250,308,Hutto,"238, Hanstrom Drive, Hutto, Williamson County, Texas, 78634, USA",30.5383302,-97.5496737
251,309,Lago Vista,"3404, American Drive, Lago Vista, Travis County, Texas, 78645, USA",30.44035973,-98.02192695
252,310,Galveston,"Congregation B'nai Israel, 3008, Avenue O, Galveston, Galveston County, Texas, 77550, USA",29.29243675,-94.79859036
253,311,Spicewood,"1115, Edgewater Drive, The Boulevard, Travis County, Texas, 78669, USA",30.40058547,-98.00034229
254,312,Austin,"7-Eleven, East 9th Street, Dirty Sixth, Austin, Travis County, Texas, 78701, USA",30.2708362,-97.74143126
255,313,Houston,"4773, Woodside Street, Houston, Harris County, Texas, 77023, USA",29.73771842,-95.32861856
256,315,San Antonio,"335, East Hollywood Avenue, Monte Vista, San Antonio, Bexar County, Texas, 78212, USA",29.46464397,-98.48860572
257,316,Belton,"436 Spur Road, Little River, Bell County, Texas, 76554, USA",30.9959971,-97.40209915
258,317,Dallas,"1999, Ocalla Avenue, Dallas, Dallas County, Texas, 75218, USA",32.8199628,-96.70168684
259,319,Carrollton,"Surveyor Boulevard, Addison, Dallas County, Texas, 75001, USA",32.96224836,-96.84762323
260,320,Austin,"1309, Kittansett Cove, Austin, Travis County, Texas, 78746, USA",30.28254783,-97.82910595
261,321,Denton,"8060, Seven Oaks Lane, Denton, Denton County, Texas, 76210, USA",33.1434201,-97.11782198
262,322,Eddy,"1349, Hodge Road, Eddy, McLennan County, Texas, 76524, USA",31.30283594,-97.28492552
263,323,Rockport,"Key Allegro, Rockport, Aransas County, Texas, 78382, USA",28.04353713,-97.03210808
264,324,Manor,"11900, Briarcreek Loop, Briarcreek, New Katy, Travis County, Texas, 78653, USA",30.31864462,-97.53576258
265,325,Killeen,"East Elms Road, Killeen, Bell County, Texas, 76542, USA",31.07640999,-97.72152696
266,326,Euless,"425, Sierra Drive, Euless, Tarrant County, Texas, 76040, USA",32.83298619,-97.11114517
267,327,Celina,"676, West Walnut Street, Celina, Collin County, Texas, 75009, USA",33.32453082,-96.79018068
268,328,Nacogdoches,"County Road 504, Hayward Junction, Nacogdoches County, Texas, 75961, USA",31.56407874,-94.62385177
269,329,Houston,"West Bellfort Street, Houston, Harris County, Texas, 77025, USA",29.67183631,-95.42347628
270,330,Dallas,"Ridgewood Trail, The Village, Dallas, Dallas County, Texas, 54231, USA",32.84624521,-96.74246166
271,331,Arlington,"Lot H, Road To Six Flags East, Arlington, Tarrant County, Texas, 76011, USA",32.75538087,-97.09107794
272,332,Rockport,"634, East Hackberry Street, Rockport, Aransas County, Texas, 78382, USA",28.01785092,-97.05727144
273,333,Austin,"2100, Paramount Avenue, Barton Hills, Austin, Travis County, Texas, 78704, USA",30.25230643,-97.77757215
274,334,Lakeway,"507, Highlander, Lakeway, Travis County, Texas, 78734, USA",30.36784292,-97.99805756
275,335,Rosenberg,"5118, Oakbriar Lane, Rosenberg, Fort Bend County, Texas, 77469, USA",29.50860228,-95.80310778
276,336,Arlington,"635, Waggoner Drive, Arlington, Tarrant County, Texas, 76013, USA",32.72803363,-97.14052401
277,337,McKinney,"510, West Heard Street, McKinney, Collin County, Texas, 75069, USA",33.20465027,-96.61962981
278,338,Brazoria,"201, Nevada Street, Brazoria, Brazoria County, Texas, 77422, USA",29.04309401,-95.57157115
279,341,Lumberton,"10418, Cooks Lake Road, Loeb, Hardin County, Texas, 77657, USA",30.18544674,-94.16076597
280,348,La Porte,"3114, Hamilton Street, La Porte, Harris County, Texas, 77571, USA",29.62568246,-95.01226357
281,350,Corpus Christi,"Windward Drive, Mustang-Padre Island, Corpus Christi, Nueces County, Texas, USA",27.60150302,-97.21524704
282,351,Texas City,"2005, 19th Avenue North, Texas City, Galveston County, Texas, 77590, USA",29.4027029,-94.92380238
283,352,Marble Falls,"Hatchett Hill, Mormon Mill, Burnet County, Texas, 78654, USA",30.58938648,-98.2342699
284,353,Corinth,"2536, Mountainview Drive, Corinth, Denton County, Texas, 76210, USA",33.13826167,-97.05509438
285,354,Fort Worth,"4259, Bryce Avenue, Fort Worth, Tarrant County, Texas, 76107, USA",32.73953478,-97.38133597
286,356,Canton,"5543, Farm-to-Market Road 1651, Whitton, Van Zandt County, Texas, 75103, USA",32.47689543,-95.92646129
287,358,Austin,"7709, Vail Valley Drive, Maple Run, Austin, Travis County, Texas, 78749, USA",30.21603018,-97.85869142
288,359,Leander,"13221, Misty Bend, Travis County, Texas, 78641, USA",30.50527204,-97.8771736
289,360,Amarillo,"6398, Arden Road, Amarillo, Randall County, Texas, 79109, USA",35.13213102,-101.9084476
290,367,Bryan,"3618, Stevens Drive, Bryan, Brazos County, Texas, 77808, USA",30.7173195,-96.37642964
291,369,South Padre Island,"192, Pike Street, South Padre Island, Cameron County, Texas, 78597, USA",26.10288118,-97.16509496
292,371,Laguna Vista,"94, Spoonbill Cove, Laguna Vista, Cameron County, Texas, 78578, USA",26.11747309,-97.30439909
293,372,Austin,"3402, Govalle Avenue, Rosewood, Austin, Travis County, Texas, 78702, USA",30.26530049,-97.69991544
294,373,College Station,"261, Feldstone Place, Sonoma, College Station, Brazos County, Texas, 77845, USA",30.55460083,-96.28789729
295,375,Fort Worth,"8800, Royal Harbor, Fort Worth, Tarrant County, Texas, 76179, USA",32.88370025,-97.45226113
296,376,Lago Vista,"3148, Thurman Road, Hudson Bend, Travis County, Texas, 78645, USA",30.41536328,-97.98457447
297,377,College Station,"823, University Oaks Boulevard, Sorority Row, College Station, Brazos County, Texas, 77840, USA",30.62176062,-96.3160046
298,379,South Padre Island,"Peninsula Island Resort and Spa, 340, Padre Boulevard, South Padre Island, Cameron County, Texas, 78597, USA",26.08756152,-97.16118837
299,384,Leander,"11008, Beach Road, Nameless, Travis County, Texas, 78641, USA",30.49376826,-97.91400505
300,385,Austin,"5705, Westminster Drive, Windsor Park, Austin, Travis County, Texas, 78723, USA",30.31034353,-97.6907244
301,386,Austin,"4008, Maplewood Avenue, Delwood, Austin, Travis County, Texas, 78722, USA",30.29515512,-97.71293468
302,387,Bryan,"2799, Bayberry Court, Bryan, Brazos County, Texas, 77807, USA",30.62615729,-96.38565376
303,388,South Padre Island,"1400, Gulf Boulevard, South Padre Island, Cameron County, Texas, 78597, USA",26.09494541,-97.16351287
304,389,Houston,"Riva's, 1117, Missouri Street, Houston, Harris County, Texas, 77006, USA",29.74622426,-95.39220643
305,390,Bryan,"1482, Bristol Street, Bryan, Brazos County, Texas, 77802, USA",30.65780838,-96.35062035
306,391,Arlington,"519, Waggoner Drive, Arlington, Tarrant County, Texas, 76013, USA",32.72943232,-97.14084642
307,392,Denton,"198, Peach Street, Denton, Denton County, Texas, 76209, USA",33.23611895,-97.13148007
308,393,New Braunfels,"135, East Main Street, New Braunfels, Comal County, Texas, 78130, USA",29.71130945,-98.120143
309,394,Fort Worth,"3700, Bellaire Drive North, Fort Worth, Tarrant County, Texas, 76109, USA",32.70638827,-97.37252977
310,395,Corpus Christi,"Surfside Sandwich Shoppe, 15113, South Padre Island Drive, Mustang-Padre Island, Corpus Christi, Nueces County, Texas, 78418, USA",27.60664399,-97.22494796
311,396,Horseshoe Bay,"State Highway 29, Laguna Vista, Burnet County, Texas, 78611, USA",30.76671749,-98.34262529
312,397,Fort Worth,"3624, Linden Avenue, Fort Worth, Tarrant County, Texas, 76107, USA",32.73779821,-97.37106138
313,399,Lakeway,"408, Morning Cloud Street, Lakeway, Travis County, Texas, 78734, USA",30.37837788,-97.97548593
314,401,Dallas,"3704, Matador Drive, Dallas, Dallas County, Texas, 75220, USA",32.87545848,-96.85596389
315,402,Killeen,"5038, Greenlee Drive, Killeen, Bell County, Texas, 76542, USA",31.07246937,-97.69427626
316,403,Salado,"Stella Drive, Salado, Bell County, Texas, 76571, USA",30.94127931,-97.53317629
317,404,Belton,"99, Admirals Circle, Morgans Point Resort, Bell County, Texas, 76513, USA",31.14886588,-97.47713941
318,405,Dallas,"4124, Oak Lawn Avenue, Highland Park, Dallas County, Texas, 75219, USA",32.81870409,-96.80110468
319,406,Frisco,"Hidden Cove Marina, Hidden Cove Park, Stewart Peninsula, The Colony, Denton County, Texas, 75036, USA",33.12624931,-96.933584
320,407,Aubrey,"Waterstone, Cross Roads, Denton County, Texas, 76227, USA",33.23848987,-97.00932578
321,408,Dallas,"10602, Stone Canyon Road, Dallas, Dallas County, Texas, 75230, USA",32.89208122,-96.77417884
322,409,Fairfield,"424, East Reunion Street, Fairfield, Freestone County, Texas, 75840, USA",31.7230404,-96.15551038
323,410,Horseshoe Bay,"WorldMark Marble Falls, Rocky Road, Marble Falls, Burnet County, Texas, 76654, USA",30.55089633,-98.28666295
324,411,New Braunfels,"Plumeyer Photography, 150, South Seguin Avenue, New Braunfels, Comal County, Texas, 78130, USA",29.70200704,-98.12414219
325,412,San Antonio,"Wind Canyon, Converse, Bexar County, Texas, 78239, USA",29.52493112,-98.36023811
326,413,Fort Worth,"11009, Briaroaks Drive, Fort Worth, Tarrant County, Texas, USA",32.5970122,-97.32323548
327,414,New Braunfels,"10874, Tonne Drive West, Corbyn, Comal County, Texas, 78132, USA",29.67397781,-98.26615275
328,415,Fayetteville,"Krebsville, Austin County, Texas, USA",30.01784802,-96.55726814
329,416,Austin,"6708, Circle South Road, Pleasant Hill, Austin, Travis County, Texas, 78745, USA",30.19100924,-97.77827214
330,417,Houston,"Uvalde Road, Beaumont Place, Cloverleaf, Harris County, Texas, 77049, USA",29.8234493,-95.18304999
331,418,Round Rock,"1506, Arusha Street, Spring Trails, Pflugerville, Travis County, Texas, 78664, USA",30.47043748,-97.64767859
332,419,Fredericksburg,"81, Cedar Hills Drive, Gillespie County, Texas, 78624, USA",30.28732006,-98.95801746
333,420,Kyle,"146, Gardner Road, Niederwald, Hays County, Texas, 78640, USA",30.03151282,-97.76061052
334,421,Humble,"20069, Sunny Shores Drive, Houston, Harris County, Texas, 77346, USA",30.01090459,-95.15703021
335,422,Bryan,"Briar Oaks Drive, Bryan, Brazos County, Texas, 77802, USA",30.64459755,-96.32581834
336,423,Richmond,"7361, Wimberly Oaks Lane, Twin Oaks Village, Fort Bend County, Texas, 77407, USA",29.69821321,-95.69712429
337,424,Grand Prairie,"3042, Harrell Drive, Grand Prairie, Tarrant County, Texas, 75052, USA",32.68845993,-97.06090156
338,425,DeSoto,"1403, Dutchman Creek Drive, DeSoto, Dallas County, Texas, 75115, USA",32.59145416,-96.89523292
339,426,Conroe,"Harper's Landing, College Park, The Woodlands, Montgomery County, Texas, 77384-5317, USA",30.21529593,-95.44949971
340,427,Spring,"2608, Rolling Glen Drive, Spring Lakes, Spring, Harris County, Texas, 77373, USA",30.07948315,-95.39830172
341,428,Fredericksburg,"KNAF-AM (Fredericksburg), North Kay Street, Fredericksburg, Gillespie County, Texas, 78624, USA",30.28634674,-98.88377942
342,429,Fredericksburg,"842, Poplar Street, Fredericksburg, Gillespie County, Texas, 78624, USA",30.26558168,-98.87807421
343,431,Austin,"5312, Old Spicewood Springs Road, Adirondack, Austin, Travis County, Texas, 78731, USA",30.38300429,-97.76838274
344,432,San Antonio,"525, East Carson Street, Government Hill, San Antonio, Bexar County, Texas, 78208, USA",29.44162818,-98.46787809
345,433,San Antonio,"8783, Tesoro Drive, San Antonio, Bexar County, Texas, 78217, USA",29.52007905,-98.45505578
346,434,Port Aransas,"168, Keewaydin Lane, Port Aransas, Aransas County, Texas, 78373, USA",27.7775229,-97.10350383
347,435,Killeen,"East Elms Road, Killeen, Bell County, Texas, 76542, USA",31.07600114,-97.71989729
348,436,Austin,"8113, Appomattox Drive, Southwest Oaks, Austin, Travis County, Texas, 78745, USA",30.19324162,-97.8180449
349,437,Elgin,"Jim Dandy Drive, Elgin, Bastrop County, Texas, 78621, USA",30.34822772,-97.3870842
350,438,Irving,"Woodland Ridge Apartments, Irving, Dallas County, Texas, USA",32.8602811,-96.99707984
351,439,Comfort,"State Highway 27, Comfort, Kendall County, Texas, USA",29.96565547,-98.91607738
352,440,Arlington,"South Bowen Road, Dalworthington Gardens, Tarrant County, Texas, 76016, USA",32.69075708,-97.14931638
353,441,Austin,"3431, North Hills Drive, Highland Hills, Austin, Travis County, Texas, 78731, USA",30.348379,-97.75177396
354,442,Humble,"Church of Christ - Lake Houston, Farmingham Road, Golfers Village, Atascocita, Harris County, Texas, 77346, USA",29.99748178,-95.14725643
355,443,Sealy,"9424, Regenbrecht Lake Lane, Peters, Austin County, Texas, 77474, USA",29.8570942,-96.21374545
356,444,Kerrville,"2577, Bandera Highway, Kerrville, Kerr County, Texas, 78028, USA",30.00645822,-99.11604536
357,445,Burnet,"105, Kelly Drive, Rocky Point, Burnet County, Texas, 78611, USA",30.81330843,-98.37031289
358,446,Humble,"Bender Avenue, Humble, Harris County, Texas, 77338, USA",29.99630211,-95.26877101
359,447,Argyle,"184, Whispering Trail, Argyle, Denton County, Texas, 76226, USA",33.10742995,-97.14993133
360,448,Kerrville,"Clubhouse Road, Kerrville, Kerr County, Texas, USA",29.97977465,-99.12869005
361,449,Bryan,"2690, Lochinvar Lane, Bryan, Brazos County, Texas, 77802, USA",30.668432,-96.3412792
362,450,New Braunfels,"131, West Tanglewood Drive, New Braunfels, Comal County, Texas, 78130, USA",29.7214753,-98.14517937
363,451,Fort Worth,"3701, Huntwick Drive, Fort Worth, Tarrant County, Texas, 76123, USA",32.62737438,-97.37373806
364,452,Houston,"Liquor World Discount, Woodridge Square Drive, Houston, Harris County, Texas, 77087, USA",29.70332322,-95.29328932
365,453,Spring,"1799, West Welsford Drive, Rayford, Montgomery County, Texas, 77386, USA",30.13757365,-95.4132804
366,454,Irving,"9000, Crown Point Circle, Valley Ranch, Irving, Dallas County, Texas, 75063, USA",32.93055549,-96.94416504
367,455,Austin,"2102, Columbia Cove, Coronado Hills, Austin, Travis County, Texas, 78723, USA",30.32028119,-97.68357609
368,456,Baytown,"Needlepoint Road, Baytown, Harris County, Texas, 77523, USA",29.81233029,-94.92913906
369,457,Fort Worth,"3913, Mattison Avenue, Fort Worth, Tarrant County, Texas, 76107, USA",32.74931088,-97.37602227
370,458,Humble,"19279, Hikers Trail Drive, Houston, Harris County, Texas, 77346, USA",29.9972706,-95.1452594
371,459,Harker Heights,"1627, Inca Drive, Harker Heights, Bell County, Texas, 76548, USA",31.06351199,-97.63620315
372,460,Spring,"Powerline Pass Drive, Spring, Harris County, Texas, 77373, USA",30.07152715,-95.37054536
373,462,New Braunfels,"420, Blue Spruce Drive, Evergreen Village, New Braunfels, Comal County, Texas, 78130, USA",29.67292691,-98.14713043
374,463,Red Oak,"1238, Pratt Road, Red Oak, Ellis County, Texas, 75154, USA",32.53439907,-96.75423225
375,464,Corinth,"1892, Morning Glory Drive, Corinth, Denton County, Texas, 76210, USA",33.14505778,-97.08167652
376,465,Frisco,"12856, Gillon Drive, Frisco, Collin County, Texas, 75035, USA",33.18438575,-96.79858778
377,466,Del Valle,"7200, Kellam Road, Berdoll Farms, Austin, Travis County, Texas, 78617, USA",30.15604462,-97.61940563
378,467,Corpus Christi,"2285, Meadowcreek Drive, South Side, Corpus Christi, Nueces County, Texas, 78414, USA",27.68649455,-97.35794942
379,468,Granbury,"3960, Quail Ridge Court, Waples, Hood County, Texas, 76049, USA",32.47825287,-97.72536901
380,469,College Station,"612, Holleman Drive, Callaway Villas, College Station, Brazos County, Texas, 77840, USA",30.60092992,-96.32690755
381,470,Dallas,"1337, Plowman Avenue, Bishop Arts District, Dallas, Dallas County, Texas, 75203, USA",32.75955203,-96.82027481
382,471,Irving,"3830, Marcillia Circle, Irving, Dallas County, Texas, 75038, USA",32.86502386,-96.99872175
383,473,Austin,"11403, Hidden Quail Drive, Quail Hollow, Austin, Travis County, Texas, 78758, USA",30.39069951,-97.70127237
384,475,Fort Worth,"4720, Norma Street, Fort Worth, Tarrant County, Texas, 76112, USA",32.7428166,-97.25294085
385,476,Shady Shores,"100, Shahan Drive, Shady Shores, Denton County, Texas, 76208, USA",33.15982766,-97.02829516
386,477,Hutto,"134, Campos Drive, Hutto, Williamson County, Texas, 78634, USA",30.53770881,-97.5466165
387,478,Austin,"11803, Hornsby Street, Oak Ridge, Austin, Travis County, Texas, 78753, USA",30.38616415,-97.68003864
388,479,Port Aransas,"Port Aransas, Aransas County, Texas, 78373, USA",27.81404327,-97.07114957
389,480,Corpus Christi,"Corpus Christi North Beach, Corpus Christi Beach Walk, Peoples Street T-Head, Downtown, Corpus Christi, Nueces County, Texas, 78402, USA",27.82503642,-97.38508646
390,481,College Station,"Los Portales Drive, University Heights, College Station, Brazos County, Texas, 77862, USA",30.57538012,-96.3310934
391,482,Corpus Christi,"Corpus Christi North Beach, Corpus Christi Beach Walk, Peoples Street T-Head, Downtown, Corpus Christi, Nueces County, Texas, 78402, USA",27.82558546,-97.38489809
392,483,Lago Vista,"3404, American Drive, Lago Vista, Travis County, Texas, 78645, USA",30.43893057,-98.0216698
393,484,Clear Lake Shores,"1345, Marina Bay Drive, League City, Galveston County, Texas, 77565, USA",29.54006048,-95.03925651
394,485,Humble,"4214, Riverside Oaks Drive, Houston, Harris County, Texas, 77345, USA",30.06504593,-95.17284878
395,486,Irving,"7828, Southfork Bend, Campion Hollows, Valley Ranch, Irving, Dallas County, Texas, 75063, USA",32.91414569,-96.94498429
396,487,Killeen,"Chaparral Road, Killeen, Bell County, Texas, 76542, USA",31.03514097,-97.72396975
397,488,Fort Worth,"5012, Cedar River Trail, Fort Worth, Tarrant County, Texas, 76137, USA",32.88428901,-97.27525616
398,491,Fort Worth,"6769, Confederate Park Road, Castle Hill Estate, Tarrant County, Texas, 76108, USA",32.82239369,-97.51142775
399,492,El Lago,"White Elementary School, Whitecap Drive, El Lago, Harris County, Texas, 77586, USA",29.57908835,-95.03385067
400,493,College Station,"Travis Cole Avenue, The Barracks Townhomes, College Station, Brazos County, Texas, 77845-5357, USA",30.57234924,-96.31712257
401,494,Houston,"14838, Cobre Valley Drive, Houston, Harris County, Texas, 77062, USA",29.58017374,-95.13687659
402,499,Clifton,"County Road 4270, Pendell, Bosque County, Texas, 76634, USA",31.74026539,-97.55502249
403,500,Katy,"21247, Park Bend Drive, Memorial Parkway, Harris County, Texas, 77450, USA",29.76481827,-95.73556473
404,501,Conroe,"9905, Lace Flower Way, Harper's Landing, Montgomery County, Texas, 77385, USA",30.21786909,-95.42788742
405,502,Houston,"301, Overland Park Drive, Cloverleaf, Harris County, Texas, 77049, USA",29.81022873,-95.16967031
406,503,Round Rock,"Settlers Crossing, Williamson County, Texas, 78634, USA",30.54834057,-97.60498939
407,504,Houston,"7874, Bonaire Street, Houston, Harris County, Texas, 77028, USA",29.81082365,-95.28567328
408,505,Boerne,"80, Pfeiffer Road, Walnut Grove, Kendall County, Texas, 78006, USA",29.83758863,-98.75453174
409,506,San Antonio,"SurePoint Self Storage, Seidel Road, San Antonio, Bexar County, Texas, 78209, USA",29.48838374,-98.444213
410,507,Port Aransas,"798, Island Retreat Road, Mustang Beach, Port Aransas, Aransas County, Texas, 78373, USA",27.81324328,-97.07179496
411,508,Temple,"2098, Edgehill Drive, Temple, Bell County, Texas, 76502, USA",31.10396578,-97.44525194
412,509,San Antonio,"5847, UTSA Boulevard, San Antonio, Bexar County, Texas, 78249, USA",29.57623226,-98.60136903
413,510,Sugar Land,"15194, Oldtown Bridge Court, Fort Bend County, Texas, 77498, USA",29.65977054,-95.64806531
414,511,College Station,"119, Pershing Avenue, Callaway Villas, College Station, Brazos County, Texas, 77840, USA",30.61005517,-96.33111861
415,512,Irving,"3207, Finley Road, Irving, Dallas County, Texas, 75062, USA",32.85074573,-96.98889558
416,513,San Antonio,"15316, Pebble Sound, San Antonio, Bexar County, Texas, 78232, USA",29.58181665,-98.44024234
417,514,Houston,"2286, Truxillo Street, Houston, Harris County, Texas, 77004, USA",29.73053131,-95.36952978
418,515,Arlington,"Mansfield Webb Road, Mansfield, Tarrant County, Texas, 76002, USA",32.61141995,-97.11025891
419,516,Houston,"1369, Woodyard Drive, Westfield, Harris County, Texas, 77073, USA",29.98790215,-95.40261181
420,517,Arlington,"1259, Andrews Street, Arlington, Tarrant County, Texas, 76011, USA",32.7540377,-97.09147291
421,518,Houston,"5561, Winding Creek Way, Houston, Harris County, Texas, 77017, USA",29.68104725,-95.2371554
422,519,Fort Worth,"International Leadership of Texas, Boca Raton Boulevard, Fort Worth, Tarrant County, Texas, 76112, USA",32.76796115,-97.22877591
423,520,Cedar Park,"Fall Creek Loop, Cedar Park, Williamson County, Texas, 78613, USA",30.48437502,-97.83412433
424,521,Comfort,"Otto Brinkmann House, High Street, Comfort, Kendall County, Texas, USA",29.96729402,-98.90894373
425,522,Houston,"79, East Briar Hollow Lane, Highland Village, Houston, Harris County, Texas, 77027, USA",29.74811321,-95.4487467
426,524,San Antonio,"8308, Apricot Bloom, Silver Oaks, Bexar County, Texas, 78254, USA",29.51651954,-98.72942449
427,525,Port Isabel,"774, East Clam Circle, Cameron County, Texas, 78578, USA",26.06234802,-97.20465145
428,527,Blanco,"Crabapple Road, Kendalia, Kendall County, Texas, 78027, USA",30.02644958,-98.53455585
429,528,Conroe,"11112, Little Egypt Road, Camellia, Conroe, Montgomery County, Texas, 77304, USA",30.38168948,-95.52439876
430,529,Temple,"399, Starlight Drive, Temple, Bell County, Texas, 76502, USA",31.12595638,-97.44777633
431,530,Houston,"Pershing Middle School, Bellefontaine Street, Braes Heights, Houston, Harris County, Texas, 77025, USA",29.70354756,-95.43672085
432,531,Kyle,"162, Gardner Road, Niederwald, Hays County, Texas, 78640, USA",30.03122341,-97.76088109
433,532,Fort Worth,"9808, Maryville Lane, Fort Worth, Tarrant County, Texas, 76108, USA",32.76277863,-97.48910399
434,534,South Padre Island,"Schlitterbahn South Padre Island, Padre Boulevard, South Padre Island, Cameron County, Texas, 78597, USA",26.08167589,-97.15969968
435,535,Horseshoe Bay,"Rocky Road, Marble Falls, Burnet County, Texas, 76654, USA",30.55242244,-98.28623866
436,536,Corpus Christi,"Comfort Inn And Suites, Windward Drive, Mustang-Padre Island, Corpus Christi, Nueces County, Texas, USA",27.60541163,-97.21029661
437,538,Houston,"5234, Claremont Street, Houston, Harris County, Texas, 77023, USA",29.72985413,-95.32380765
438,539,Austin,"CoTA, Circuit Of The Americas Boulevard, Austin, Travis County, Texas, 78617, USA",30.13635204,-97.63207995
439,540,Austin,"2009, Haskell Street, East Cesar Chavez, Austin, Travis County, Texas, 78702, USA",30.25163257,-97.72475514
440,541,Corpus Christi,"Corpus Christi North Beach, Corpus Christi Beach Walk, Peoples Street T-Head, Downtown, Corpus Christi, Nueces County, Texas, 78402, USA",27.83006719,-97.38031507
441,542,Cat Spring,"FM 949, Cat Spring, Austin County, Texas, 78933, USA",29.84609757,-96.3258372
442,543,Irving,"7092, Angelina Drive, Valley Ranch, Irving, Dallas County, Texas, 75039, USA",32.90408962,-96.94435929
443,544,Houston,"Lake Houston Parkway, King's Harbor, Houston, Harris County, Texas, 77345, USA",30.03661788,-95.17443118
444,546,Houston,"14840, Richmond Avenue, Houston, Harris County, Texas, 77082, USA",29.72933109,-95.64955181
445,547,Waco,"834, Hodge Road, Eddy, McLennan County, Texas, 76524, USA",31.30441617,-97.28469624
446,548,Del Valle,"12520, Paloma Blanca Way, Meadows at Berdoll, Austin, Travis County, Texas, 78716, USA",30.16787835,-97.62768327
447,549,College Station,"1517, Wolf Run, Callaway Villas, College Station, Brazos County, Texas, 77840, USA",30.61356999,-96.32460569
448,550,College Station,"2730, Silver Oak Drive, Sonoma, College Station, Brazos County, Texas, 77845, USA",30.5556998,-96.29075982
449,551,Spring,"42, Waning Moon Drive, Spincaster South, Creekside Park, The Woodlands, Harris County, Texas, 77389, USA",30.14540125,-95.5337605
450,552,Ingram,"103, Old Ingram Loop, Ingram, Kerr County, Texas, 78025, USA",30.07155061,-99.24222187
451,553,Conroe,"448, North 2nd Street, Conroe, Montgomery County, Texas, 77301, USA",30.31336108,-95.45380877
452,554,Port Aransas,"Mustang Beach, Port Aransas, Aransas County, Texas, 78373, USA",27.81298345,-97.07736358
453,555,Round Rock,"1301, Mickey Mantle Place, Settlers Crossing, Round Rock, Williamson County, Texas, 78665, USA",30.53683123,-97.62418345
454,556,Spring,"Childres Pond, Cayuga Pond Court, Wilde Creek, Creekside Park, The Woodlands, Harris County, Texas, 77381, USA",30.14161649,-95.51416179
455,557,Houston,"2007, West Indies Court, Nassau Bay, Harris County, Texas, 77058, USA",29.53697472,-95.0851601
456,558,Dallas,"305, West 8th Street, Bishop Arts District, Dallas, Dallas County, Texas, 75208, USA",32.74836087,-96.82689832
457,559,Lakehills,"Lakeshore Road, Lakehills, Bandera County, Texas, USA",29.57510548,-98.91809234
458,560,San Antonio,"14398, Briarbend Street, Wetmore, San Antonio, Bexar County, Texas, 78247, USA",29.57599757,-98.41292154
459,561,McKinney,"8008, White Stallion Trail, Craig Ranch North, McKinney, Collin County, Texas, 75070, USA",33.1579704,-96.71850054
460,562,Kemah,"617, 8th Street, Kemah, Galveston County, Texas, 77565, USA",29.54175984,-95.01779754
461,563,Corpus Christi,"4018, Timon Boulevard, Downtown, Corpus Christi, Nueces County, Texas, 78402, USA",27.82638628,-97.38631751
462,564,Corpus Christi,"Bank of America Building, Peoples Street, Peoples Street T-Head, Downtown, Corpus Christi, Nueces County, Texas, 78401, USA",27.79647812,-97.39322842
463,565,Cibolo,"180, Glen Eagles Drive, Cibolo, Guadalupe County, Texas, 78108, USA",29.58220176,-98.24507819
464,566,Fort Worth,"3509, Hamilton Avenue, Fort Worth, Tarrant County, Texas, 76107, USA",32.75475321,-97.36890998
465,567,Austin,"12000, Hardwood Trail, Anderson Mill, Jollyville, Austin, Williamson County, Texas, 78750, USA",30.45737391,-97.8163944
466,568,Austin,"5602, Westminster Drive, Windsor Park, Austin, Travis County, Texas, 78723, USA",30.30897357,-97.69069161
467,570,Arlington,"2367, Vineyard Drive, Arlington, Tarrant County, Texas, 76015, USA",32.6978023,-97.14516078
468,571,Fort Worth,"5740, Tiger Trail, Fort Worth, Tarrant County, Texas, 76126, USA",32.6315831,-97.48943983
469,572,Fort Worth,"Haltom City, Tarrant County, Texas, 76117, USA",32.82215465,-97.2628336
470,573,Bryan,"Old College Road, Saddlewood Apartments, Bryan, Brazos County, Texas, 77801, USA",30.62619406,-96.35514901
471,574,Houston,"14643, Lourdes Drive, Cloverleaf, Harris County, Texas, 77049, USA",29.81174059,-95.18728232
472,575,Dallas,"3702, Frankford Road, Dallas, Denton County, Texas, 75287, USA",32.99545629,-96.85093259
473,576,Katy,"McDonough Way, Grand Meadow, Fort Bend County, Texas, USA",29.74578557,-95.86978786
474,577,McKinney,"North College Street, McKinney, Collin County, Texas, 75069, USA",33.19830537,-96.62097576
475,578,Arlington,"Cloisters Drive, Arlington, Tarrant County, Texas, 76011, USA",32.76565612,-97.09337666
476,579,San Antonio,"930, Carmel Place, Fulton, San Antonio, Bexar County, Texas, 78201, USA",29.46996713,-98.5100514
477,580,Aubrey,"Providence Village, New Hope, Denton County, Texas, 76227, USA",33.24389912,-96.961886
478,581,Austin,"11500, Jollyville Road, Hardrock Canyon, Jollyville, Austin, Travis County, Texas, 78759, USA",30.41344133,-97.74862165
479,582,Arlington,"500, Whistler Drive, Arlington, Tarrant County, Texas, 76006, USA",32.78655129,-97.1118092
480,583,Irving,"1618, Balleywood Road, Irving, Dallas County, Texas, 75060, USA",32.79566013,-96.92999103
481,584,Bryan,"978, East William J Bryan Parkway, Bryan, Brazos County, Texas, 77803, USA",30.67375207,-96.36416366
482,585,McKinney,"356, West Davis Street, McKinney, Collin County, Texas, 75069, USA",33.19612643,-96.61773853
483,586,Gordon,"2, Chism Trail, Lone Camp, Palo Pinto County, Texas, 76453, USA",32.63657971,-98.29167539
484,587,Corpus Christi,"14856, Windward Drive, Mustang-Padre Island, Corpus Christi, Nueces County, Texas, 78418, USA",27.60754107,-97.20785067
485,588,Katy,"Holton Ridge Drive, King Lakes, Cinco Ranch, Fort Bend County, Texas, 77494, USA",29.73618922,-95.79539105
486,590,Brookshire,"County Line Road, Fort Bend County, Texas, USA",29.7264327,-95.99619335
487,592,Arlington,"Old Mill Drive, Arlington, Tarrant County, Texas, 76011, USA",32.76345636,-97.09331717
488,593,Abilene,"South 11th Street, Abilene, Taylor County, Texas, 79605, USA",32.4371233,-99.74383276
489,594,Fort Worth,"4578, Del Ridge Road, Westland, Tarrant County, Texas, 76028, USA",32.68971883,-97.51127374
490,596,San Antonio,"2685, Turkey Oak Street, San Antonio, Bexar County, Texas, 78232, USA",29.59520135,-98.44834235
491,597,Fredericksburg,"408, Cora Street, Fredericksburg, Gillespie County, Texas, 78624, USA",30.27741784,-98.86885728
492,599,Terlingua,"FM 170, Lajitas, Brewster County, Texas, USA",29.31474326,-103.6184445
493,600,College Station,"2120, Colgate Drive, The Trails at Wolf Pen, College Station, Brazos County, Texas, 77840, USA",30.61766062,-96.30276162
494,601,Galveston,"2301, 52nd Street, Galveston, Galveston County, Texas, 77551, USA",29.27987441,-94.82137298
495,602,Houston,"429, Columbia Street, North Inner Loop, Houston, Harris County, Texas, 77007, USA",29.77841683,-95.39310038
496,605,Salado,"186, North Main Street, Salado, Bell County, Texas, 76571, USA",30.94896738,-97.53695812
497,608,Harker Heights,"3656, Blanco Drive, Harker Heights, Bell County, Texas, 76548, USA",31.03481406,-97.64290786
498,609,Houston,"5135, Dincans Street, Houston, Harris County, Texas, 77005, USA",29.72664149,-95.41992229
499,610,Fulshear,"Addison Ranch Lane, The Heights, Fort Bend County, Texas, USA",29.72396219,-95.8489102
500,612,New Braunfels,"Hinman Island Drive, New Braunfels, Comal County, Texas, 78130, USA",29.70789151,-98.12896642
501,613,Houston,"Wharton Elementary School, Columbus Street, Houston, Harris County, Texas, 77019, USA",29.75363112,-95.39079165
502,615,Plano,"3138, Citadel Drive, Plano, Collin County, Texas, 75023, USA",33.04723548,-96.75378802
503,616,Houston,"Leona Street, Houston, Harris County, Texas, 77026, USA",29.77330589,-95.35541949
504,617,Austin,"East Parmer Lane, Harris Ridge, Austin, Travis County, Texas, 78753, USA",30.39649171,-97.65447882
505,618,Dallas,"12127, Larchgate Drive, Whispering Hills, Lake Highlands, Dallas, Dallas County, Texas, 75243, USA",32.91466945,-96.71376602
506,619,Dallas,"5684, Preston Oaks Road, Dallas, Dallas County, Texas, 75254, USA",32.94246463,-96.81118119
507,622,Graham,"Ffa Lane, Palo Pinto County, Texas, USA",32.88911051,-98.55729222
508,623,Allen,"9, 205, Benton Drive, Watters Creek, Allen, Collin County, Texas, 75013, USA",33.10346667,-96.68926452
509,624,Houston,"Houston, Harris County, Texas, 77025-9998, USA",29.67901668,-95.41748298
510,625,Roanoke,"Cleveland Gibbs Road, Fort Worth, Denton County, Texas, 76177, USA",33.01264867,-97.26721738
511,626,Copper Canyon,"Copper Canyon Road, Lantana, Copper Canyon, Denton County, Texas, 76226, USA",33.09592056,-97.10773836
512,627,South Padre Island,"3346, Padre Boulevard, South Padre Island, Cameron County, Texas, 78597, USA",26.10858983,-97.1691212
513,628,Grand Prairie,"1479, California Trail, Grand Prairie, Dallas County, Texas, 75052, USA",32.65090384,-97.02232222
514,629,Dallas,"6451, Ash Lane, Fair Park, Dallas, Dallas County, Texas, 75223, USA",32.80379909,-96.74578545
515,630,La Porte,"3506, East Country Club Drive, Shoreacres, Harris County, Texas, 77571, USA",29.61864332,-95.01961738
516,631,Irving,"200, Victory Court, Valley Ranch, Irving, Dallas County, Texas, 75063, USA",32.9459899,-96.94496405
517,632,Houston,"1999, Baird Street, Houston, Harris County, Texas, 77023, USA",29.73036322,-95.32606682
518,633,San Antonio,"4687, Emory Oak Woods, Woods of Shavano, San Antonio, Bexar County, Texas, 78249, USA",29.5812718,-98.57506764
519,634,College Station,"Lot 49, Raymond Stotzer Parkway, University Apartments - The Gardens, College Station, Brazos County, Texas, 77841, USA",30.61620289,-96.34843879
520,635,Rosanky,"Sandy Lane, Jordan, Bastrop County, Texas, USA",29.94914519,-97.33242022
521,636,Elgin,"11500, Maize Lane, Littig, Travis County, Texas, 78621, USA",30.31517576,-97.43482131
522,637,Austin,"The Santal, 7624, Tecoma Circle, Austin, Travis County, Texas, 78735, USA",30.25894824,-97.86288915
523,638,Austin,"2030, East Oltorf Street, East Riverside - Oltorf, Austin, Travis County, Texas, 00787, USA",30.23032205,-97.73164775
524,639,Bandera,"State Highway 16, Bandera County, Texas, 78003, USA",29.73356929,-99.04838116
525,640,San Antonio,"Amazing Air, 7702, I-35 Frontage Road, San Antonio, Bexar County, Texas, 78218, USA",29.50442733,-98.39618636
526,641,College Station,"15944, Royder Road, The Estates at Creek Meadows, College Station, Brazos County, Texas, 77845, USA",30.52440025,-96.29061828
527,642,Houston,"280, Stratford Street, Houston, Harris County, Texas, 77006, USA",29.74605575,-95.38437703
528,643,Bacliff,"Misty Lane, Clifton Beach, Galveston County, Texas, 77518, USA",29.50528796,-94.97351296
529,644,Abilene,"1181, Santos Street, Abilene, Taylor County, Texas, 79605, USA",32.4361402,-99.74995418
530,645,San Antonio,"705, East Park Avenue, Tobin Hill, San Antonio, Bexar County, Texas, 78212, USA",29.44387895,-98.48590236
531,646,Austin,"11517, Flushwing Drive, Pioneer Crossing West, Austin, Travis County, Texas, 78754, USA",30.37510554,-97.64849103
532,647,College Station,"3183, Barron Cut Off Road, The Reserve at College Station, College Station, Brazos County, Texas, 77845, USA",30.5494838,-96.29422607
533,648,Grapevine,"2832, Columbine Drive, Grapevine, Tarrant County, Texas, 76051, USA",32.91367765,-97.10973881
534,649,San Antonio,"4503, Black Hickory Woods, Woods of Shavano, San Antonio, Bexar County, Texas, 78249, USA",29.57856465,-98.5750398
535,650,Austin,"5908, Cape Coral Drive, Austin, Travis County, Texas, 78746, USA",30.28141525,-97.8375899
536,651,Houston,"19695, Sunrise Chase Way, Barker, Harris County, Texas, 77084, USA",29.81139307,-95.71434791
537,652,Bandera,"Frontier Family Dentistry, 315, 13th Street, Bandera, Bandera County, Texas, 78003, USA",29.72627951,-99.06986968
538,653,Mineola,"314, County Road 2482, Mount Enterprise, Wood County, Texas, 75773, USA",32.73535509,-95.47547998
539,654,Fort Worth,"3637, Harley Avenue, Fort Worth, Tarrant County, Texas, 76107, USA",32.74213177,-97.37163208
540,655,Fort Worth,"2300, Lake Falls Drive, Fort Worth, Tarrant County, Texas, 76120, USA",32.79014846,-97.17906729
541,656,Alvin,"17112, Cowan Road, Algoa, Galveston County, Texas, 77511, USA",29.40811171,-95.16089885
542,657,Bolivar Peninsula,"132, Ocean View Drive, Holiday Shores, Bolivar Beach, Galveston County, Texas, 77650, USA",29.41790182,-94.69458451
543,658,Port Aransas,"201, North Station Street, Port Aransas, Aransas County, Texas, 78373, USA",27.83238362,-97.05991032
544,659,Lakeway,"122, Lakeway Drive, Lakeway, Travis County, Texas, 78734, USA",30.37242616,-97.98902879
545,660,Mineola,"County Road 452, Jamestown, Smith County, Texas, 75773, USA",32.5863597,-95.54812251
546,661,Fort Worth,"3209, West Biddison Street, Fort Worth, Tarrant County, Texas, 76109, USA",32.69885762,-97.36338168
547,662,Austin,"4810, Hale Drive, Maple Run, Austin, Travis County, Texas, 78749, USA",30.20857421,-97.85672911
548,663,Canton,"Old Mill Marketplace, East Dallas Street, Canton, Van Zandt County, Texas, 75103, USA",32.55641182,-95.85396677
549,664,Denton,"3408, Mustang Drive, Denton, Denton County, Texas, 76210, USA",33.1731934,-97.10865752
550,665,Crystal Beach,"Crystal Beach, Galveston County, Texas, 77650, USA",29.4511067,-94.63123514
551,666,Brazoria,"Hinkles Ferry, Brazoria County, Texas, USA",28.96613979,-95.55685185
552,668,Alpine,"170, East Avenue D, Alpine, Brewster County, Texas, 79830, USA",30.35930941,-103.6612737
553,670,Dallas,"8457, Coppertowne Lane, Lake Highlands, Dallas, Dallas County, Texas, 75243, USA",32.89533198,-96.72748734
554,671,Fort Worth,"7816, Ewing Avenue, Fort Worth, Tarrant County, Texas, 76116, USA",32.70787828,-97.45233413
555,672,Houston,"765, Wilken Street, North Inner Loop, Houston, Harris County, Texas, 77008, USA",29.80172737,-95.39005052
556,673,Austin,"3807, Lago Vista Drive, Mountain View, Hudson Bend, Travis County, Texas, 78734, USA",30.39359714,-97.91837548
557,674,Austin,"4800, Mantle Drive, Island Way, Travis County, Texas, 78746, USA",30.32316058,-97.78886649
558,676,Houston,"14688, Cobre Valley Drive, Houston, Harris County, Texas, 77062, USA",29.58393606,-95.13807558
559,678,Killeen,"6th Street, Killeen, Bell County, Texas, 76541, USA",31.10660608,-97.73130642
560,679,Austin,"1513, Flintridge Road, Ledgeway, West Lake Hills, Travis County, Texas, 78746, USA",30.29758718,-97.82611957
561,680,Port Aransas,"La Playa, Beach Street, Port Aransas, Aransas County, Texas, 78373, USA",27.83357548,-97.05986198
562,682,Corpus Christi,"14279, Elbow Street, Mustang-Padre Island, Corpus Christi, Nueces County, Texas, 78418, USA",27.59028225,-97.22479713
563,684,Austin,"1180, Waller Street, Central East Austin, Austin, Travis County, Texas, 78702, USA",30.27133423,-97.728335
564,689,Sugar Land,"3199, Stratford Bend Drive, Stratford Park, Fort Bend County, Texas, 77498, USA",29.63006492,-95.67475381
565,691,Dallas,"10602, Stone Canyon Road, Dallas, Dallas County, Texas, 75230, USA",32.89208122,-96.77417884
566,692,Jasper,"Rivercrest Drive, Sugar Land, Fort Bend County, Texas, 7-, USA",29.59920635,-95.61524843
567,696,Dallas,"2924, Carlson Drive, Dallas, Dallas County, Texas, 75235, USA",32.82388792,-96.83030177
568,698,Corpus Christi,"Corpus Christi, 1861-1865, Lawrence Street, Lawrence Street T-Head, Downtown, Corpus Christi, Nueces County, Texas, 78401, USA",27.79496664,-97.39407425
569,699,Rockport,"Farm-to-Market Road 1781, Rockport, Aransas County, Texas, 78358, USA",28.09731211,-97.05076242
570,701,Galveston,"7104, Seawall Boulevard, Galveston, Galveston County, Texas, 77551, USA",29.26225623,-94.8350873
571,702,Dallas,"7751, East R.L. Thornton Freeway, Dallas, Dallas County, Texas, 75228, USA",32.79481686,-96.71148235
572,703,Bolivar Peninsula,"151, Ocean Shore Drive, Holiday Shores, Bolivar Beach, Galveston County, Texas, 77650, USA",29.41784386,-94.6940258
573,707,San Antonio,"417, Eleanor Avenue, Government Hill, San Antonio, Bexar County, Texas, 78209, USA",29.45491883,-98.46599275
574,708,Dallas,"3930, Buena Vista Street, Knox, Dallas, Dallas County, Texas, 75205, USA",32.81207704,-96.79720241
575,709,Alvin,"15241, CR 185, Alvin, Brazoria County, Texas, 77511, USA",29.37048217,-95.27562949
576,710,New Braunfels,"Peace Avenue, New Braunfels, Comal County, Texas, 78130, USA",29.70876558,-98.10865456
577,711,Temple,"Wild Flower Country Club, Clover Lane, Temple, Bell County, Texas, 76502, USA",31.10074964,-97.39847491
578,713,Pflugerville,"807, Harvard Drive, Settler's Ridge, Pflugerville, Travis County, Texas, 78660, USA",30.43394466,-97.63101253
579,714,Richmond,"6971, Chapel Meadow Lane, Presidio Point, Cinco Ranch, Fort Bend County, Texas, 77407, USA",29.70264681,-95.72274771
580,716,San Antonio,"8552, Sage Brush Lane, San Antonio, Bexar County, Texas, 78217, USA",29.51787263,-98.44621693
581,717,Rockport,"281, Pintail Lane, Copano Village, Aransas County, Texas, 78382, USA",28.06908008,-97.10130009
582,718,Bleiblerville,"4127, Farm-to-Market Road 2502, Bleiblerville, Austin County, Texas, 78931, USA",30.00966368,-96.44971709
583,719,Bryan,"Jane Long Intermediate School, North Harvey Mitchell Parkway, Bryan, Brazos County, Texas, 77840, USA",30.65454188,-96.39685224
584,720,Austin,"1416, Kenwood Avenue, Travis Heights, Austin, Travis County, Texas, 78704, USA",30.2450384,-97.74003581
585,722,San Antonio,"140, Fayn Way, Dignowity Hill, San Antonio, Bexar County, Texas, 78202, USA",29.43057858,-98.47557689
586,723,Houston,"2126, Bering Drive, Houston, Harris County, Texas, 77057, USA",29.74421227,-95.47937092
587,724,Frisco,"13015, Cowper Drive, Frisco, Collin County, Texas, 75035, USA",33.18540951,-96.79799006
588,725,Nederland,"1043, North 12th Street, Nederland, Jefferson County, Texas, 77627, USA",29.97961707,-93.99760022
589,726,Houston,"955, West 24th Street, North Inner Loop, Houston, Harris County, Texas, 77008, USA",29.80815598,-95.41532948
590,727,McKinney,"West White Street, McKinney, Collin County, Texas, 75069, USA",33.20897657,-96.61915733
591,728,Harker Heights,"Warriors Path, Harker Heights, Bell County, Texas, 76559, USA",31.07118268,-97.62494138
592,729,Comfort,"219, West Apacheria Pass, Kendall County, Texas, 78013, USA",29.8917519,-98.91432055
593,730,Mason,"800, Ranch to Market Road 2389, Grossville, Mason County, Texas, 76856, USA",30.65082187,-99.24944369
594,731,Austin,"7700, Kiva Drive, Maple Run, Austin, Travis County, Texas, 78749, USA",30.21732537,-97.85913684
595,732,Houston,"1431, Hazel Street, Houston, Harris County, Texas, 77019, USA",29.75496094,-95.3957613
596,733,Balch Springs,"14998, Bell Manor Court, Balch Springs, Dallas County, Texas, 75180, USA",32.70812459,-96.58768558
597,739,Houston,"Highland Village, Houston, Harris County, Texas, WESLAYAN STREET, USA",29.73628025,-95.43984176
598,741,Irving,"653, East Royal Lane, Valley Ranch, Irving, Dallas County, Texas, 75039, USA",32.89729915,-96.93443909
599,742,Houston,"Space Center Boulevard, Houston, Harris County, Texas, 77062, USA",29.58930039,-95.13550118
600,747,Corpus Christi,"389, Troy Drive, Bay Area, Corpus Christi, Nueces County, Texas, 78412, USA",27.72259219,-97.34866914
601,749,Arlington,"7237, Matlock Road, Mansfield, Tarrant County, Texas, 76002, USA",32.62791946,-97.11515377
602,755,Port Aransas,"State Highway 361, Port Aransas, Aransas County, Texas, 78373, USA",27.72186052,-97.13891526
603,757,Bryan,"1482, Bristol Street, Bryan, Brazos County, Texas, 77802, USA",30.65780838,-96.35062035
604,759,Mineola,"Golden, Wood County, Texas, 75444, USA",32.70547405,-95.55776321
605,761,College Station,"20601, FM 2154, Millican, Brazos County, Texas, 77845, USA",30.47538393,-96.23109715
606,765,Mineola,"County Road 2660, Hoard, Wood County, Texas, USA",32.64868675,-95.38725759
607,766,Bandera,"1000, Oak Ridge Drive, Highland Waters, Bandera County, Texas, 78003, USA",29.77011887,-99.12427821
608,768,Manchaca,"12432, Old San Antonio Road, Ashbrook, Manchaca, Travis County, Texas, 78652, USA",30.12706301,-97.8127992
609,769,Plano,"Parkwood Boulevard, Plano, Collin County, Texas, 75024, USA",33.0717954,-96.81836488
610,770,Galveston,"1546, Seawall Boulevard, Galveston, Galveston County, Texas, 77550, USA",29.29568282,-94.78114218
611,771,Plano,"6498, Monahans Court, Plano, Collin County, Texas, 75023, USA",33.06008308,-96.71506134
612,772,Temple,"3396, Michaels Drive, Temple, Bell County, Texas, 76502, USA",31.06540948,-97.38577851
613,773,Dallas,"4200, Live Oak Street, Lower Greenville, Dallas, Dallas County, Texas, 75206, USA",32.79693823,-96.77813207
614,774,Bolivar Peninsula,"330, Crane Lane, Crystal Beach, Galveston County, Texas, 77650, USA",29.46642824,-94.60896076
615,775,Corpus Christi,"Quetzal Street, Flour Bluff, Corpus Christi, Nueces County, Texas, 78418, USA",27.67699884,-97.30055446
616,776,Bellaire,"4541, Birch Street, Evergreen Plaza, Bellaire, Harris County, Texas, 77401, USA",29.69644768,-95.45288849
617,777,Houston,"Hermann Park Golf Course, 2155, North MacGregor Way, Houston, Harris County, Texas, 77004, USA",29.71392724,-95.38139506
618,778,Little Elm,"949, Lloyds Road, Navo, Denton County, Texas, 75068, USA",33.19906689,-96.96005392
619,779,Grapevine,"2706, Hidden Lake Drive, Grapevine, Tarrant County, Texas, 76051, USA",32.96256717,-97.10649501
620,780,Fort Worth,"9108, Addison Drive, Fort Worth, Tarrant County, Texas, 76428, USA",32.90613,-97.30546009
621,781,Highlands,"8977, Meredith, McNair, Harris County, Texas, 77562, USA",29.82841113,-95.00668923
622,782,Lakeway,"120, Lakeway Drive, Lakeway, Travis County, Texas, 78734, USA",30.37242015,-97.98879656
623,783,Arlington,"936, Country Club Lane, Fort Worth, Tarrant County, Texas, 76112, USA",32.76641928,-97.23396261
624,784,Watauga,"6481, Alta Vista Drive, Watauga, Tarrant County, Texas, 76148, USA",32.88462871,-97.24549089
625,785,Houston,"Fayette C Lowry House, 2009, Harvard Street, North Inner Loop, Houston, Harris County, Texas, 77008, USA",29.80477409,-95.39637284
626,786,Houston,"2395, Bagby Street, Houston, Harris County, Texas, 77006, USA",29.74974567,-95.37812781
627,787,Fort Worth,"3555, Wind River Court, Fort Worth, Tarrant County, Texas, 76116, USA",32.69783897,-97.42717405
628,788,Austin,"2608, North Quinlan Park Road, Marshall Ford, Mesa North, Travis County, Texas, 78732, USA",30.36626244,-97.89504644
629,789,McKinney,"2332, North Ridge Road, McKinney, Collin County, Texas, 75070, USA",33.19424516,-96.64351149
630,790,Katy,"Clover Ranch Drive, Katy Creek Ranch, Cinco Ranch, Fort Bend County, Texas, 77494, USA",29.74590554,-95.7970205
631,791,Corpus Christi,"Surfside Boulevard, Downtown, Corpus Christi, Nueces County, Texas, 78402, USA",27.82527207,-97.38596226
632,792,Brownwood,"1071, Fisk Avenue, Brownwood, Brown County, Texas, 76801, USA",31.71454453,-98.9870777
633,793,College Station,"250, Sterling Street, Castle Rock Apartments, College Station, Brazos County, Texas, 77840, USA",30.61484823,-96.31015636
634,794,Houston,"2017, North Memorial Way, North Inner Loop, Houston, Harris County, Texas, 77007, USA",29.76384856,-95.37851923
635,795,Temple,"South General Bruce Drive, Temple, Bell County, Texas, 76502, USA",31.09161482,-97.38203304
636,796,Corpus Christi,"3447, Maui Drive, Flour Bluff, Corpus Christi, Nueces County, Texas, 78418, USA",27.6246362,-97.29262553
637,797,Houston,"6370, Allegheny Street, Houston, Harris County, Texas, 77021, USA",29.70405211,-95.37101927
638,798,College Station,"1499, Buena Vista Drive, Summit Crossing, College Station, Brazos County, Texas, 77845, USA",30.64994424,-96.28609991
639,799,McKinney,"2899, Glen Hollow Drive, McKinney, Collin County, Texas, 75070, USA",33.16924146,-96.66148754
640,801,Houston,"2045, Southern Pines Drive, Houston, Harris County, Texas, 77339, USA",30.03817371,-95.22427571
641,802,Dallas,"5440, Harvest Hill Road, Dallas, Dallas County, Texas, 75230, USA",32.92165078,-96.81545402
642,804,San Antonio,"Dent Lane, Bexar County, Texas, 78023, USA",29.58707024,-98.69930141
643,805,Conroe,"Pebble Glen Drive, Camellia, Conroe, Montgomery County, Texas, 77304, USA",30.38058039,-95.5422955
644,807,Buda,"10010, Bock Road, Mustang Ridge, Travis County, Texas, 78610, USA",30.0660656,-97.66690263
645,808,Dallas,"5001, Village Court, Dallas, Dallas County, Texas, 75001:75287, USA",32.9778831,-96.82384374
646,814,Bay City,"Winding Way, Matagorda County, Texas, 77414, USA",29.01589318,-95.97689827
647,815,Round Rock,"Joe Dimaggio Boulevard, Round Rock, Williamson County, Texas, 78664, USA",30.52569702,-97.63722293
648,818,Bastrop,"Joe Jung House, Chestnut Street, Riverside Grove, Bastrop, Bastrop County, Texas, 78602, USA",30.11084785,-97.31708263
649,819,Flower Mound,"Morriss Road, Flower Mound, Denton County, Texas, 75077, USA",33.05281178,-97.06180365
650,820,Houston,"2328, Fletcher Street, Houston, Harris County, Texas, 77009, USA",29.7804564,-95.36572794
651,821,Houston,"TownePlace Suites Houston Clear Lake, Bay Area Boulevard, Houston, Harris County, Texas, 77058, USA",29.55535028,-95.11754959
652,823,Plano,"8237, Bent Tree Springs Drive, Plano, Collin County, Texas, 75025, USA",33.09135012,-96.75956357
653,824,Houston,"13009, Sweetgum Shores Drive, Harmaston, Harris County, Texas, 77044, USA",29.95468009,-95.17607029
654,828,San Antonio,"142, Peter Baque Road, San Antonio, Bexar County, Texas, 78209, USA",29.501524,-98.47037507
655,832,The Woodlands,"31, Waterway Avenue, Town Center, The Woodlands, Montgomery County, Texas, 77380, USA",30.15713045,-95.4592744
656,833,Houston,"Neff Early Learning Center, 8200, Carvel Lane, Houston, Harris County, Texas, 77036, USA",29.69803929,-95.52848955
657,834,Crystal Beach,"2225, Trinidad Drive, Crystal Beach, Galveston County, Texas, 77650, USA",29.45857917,-94.61944458
658,836,Georgetown,"Trinity Woods Street, Leander, Williamson County, Texas, TX 78613, USA",30.5699019,-97.77553289
659,837,Houston,"Rooms to Go, West Miller Road, Cardiff, Waller County, Texas, USA",29.77335082,-95.90696227
660,838,Sugar Land,"2981, Pepperwood Lane, Sugar Land, Fort Bend County, Texas, 77479, USA",29.58335001,-95.61163082
661,840,Crystal Beach,"North Yacht Basin Road, Holiday Shores, Bolivar Beach, Galveston County, Texas, USA",29.43182796,-94.71138349
662,841,Corpus Christi,"14925, Granada Drive, Mustang-Padre Island, Corpus Christi, Nueces County, Texas, 78418, USA",27.60981302,-97.21152459
663,842,Houston,"21753, Rio Villa Drive, Highlands, Harris County, Texas, 77049, USA",29.82638586,-95.0780542
664,843,Stephenville,"Riverwalk Townhomes Community Pool, East Washington Street, Stephenville, Erath County, Texas, 76401, USA",32.22684494,-98.19431712
665,844,Port Aransas,"Port Aransas, Aransas County, Texas, USA",27.75134704,-97.12084005
666,845,Dallas,"Lyndon B Johnson Freeway, Dallas, Dallas County, Texas, 75244, USA",32.92583278,-96.82752597
667,846,Houston,"3462, Mc Ashan Street, Houston, Harris County, Texas, 77003, USA",29.75154667,-95.33801792
668,847,Austin,"1198, Angelina Street, Central East Austin, Austin, Travis County, Texas, 78702, USA",30.27234909,-97.72514019
669,848,Corpus Christi,"14701, Whitecap Boulevard, Mustang-Padre Island, Corpus Christi, Nueces County, Texas, 78418, USA",27.60094569,-97.21549995
670,849,Dallas,"6021, Gentle Knoll Lane, Dallas, Dallas County, Texas, 75248, USA",32.98121758,-96.80167273
671,850,Humble,"Deerbrook Park Boulevard, Bordersville, Harris County, Texas, 77338, USA",30.01006162,-95.29002864
672,851,Houston,"2921, La Branch Street, Houston, Harris County, Texas, 77004, USA",29.74057147,-95.37120296
673,852,Corpus Christi,"Schlitterbahn Waterpark Corpus Christi, 14353, Commodore Street, Mustang-Padre Island, Corpus Christi, Nueces County, Texas, 78418, USA",27.61712015,-97.2268791
674,853,Pflugerville,"16312, Aventura Avenue, Pflugerville, Travis County, Texas, 78660, USA",30.44571642,-97.55872891
675,854,Austin,"9403, Claxton Drive, West Oak Hill, Travis County, Texas, 78736, USA",30.24591969,-97.91107312
676,855,San Antonio,"8435, Mescal Pass, Carmona Hills, San Antonio, Bexar County, Texas, 78252, USA",29.34572464,-98.63404151
677,856,Houston,"Roseland Street, Houston, Harris County, Texas, 77006, USA",29.73400202,-95.38966312
678,857,Grand Prairie,"England Parkway, Grand Prairie, Tarrant County, Texas, 76063, USA",32.59294119,-97.03802267
679,858,Killeen,"White Oak Way, Mountain View Estates, Bell County, Texas, 76542, USA",31.01093303,-97.77766466
680,859,San Antonio,"6933, Oak Drive, San Antonio, Bexar County, Texas, 78256, USA",29.64065859,-98.62012696
681,860,Elgin,"Powell Lane, Perryville, Bastrop County, Texas, 78621, USA",30.28749499,-97.37373478
682,861,Austin,"Four Points Drive, Austin, Travis County, Texas, 78726, USA",30.39955207,-97.84598125
683,862,Kingsland,"Euel Moore Drive, Kingsland, Llano County, Texas, 78639, USA",30.65087253,-98.44034118
684,863,Austin,"2504, Quarry Road, Westfield, Austin, Travis County, Texas, 78703, USA",30.2876363,-97.77122285
685,864,Aubrey,"Aubrey, Denton County, Texas, 76227, USA",33.30752135,-96.99290953
686,865,Dallas,"7537, Spring Valley Road, Richardson, Dallas County, Texas, 75240, USA",32.9402624,-96.77448298
687,866,San Antonio,"1115, North Pine Street, Dignowity Hill, San Antonio, Bexar County, Texas, 78202, USA",29.43326424,-98.47054859
688,869,Houston,"Domain at Kirby, 1333, Old Spanish Trail, Houston, Harris County, Texas, 77054, USA",29.69508107,-95.41255156
689,870,San Antonio,"510, East Mistletoe Avenue, Monte Vista, San Antonio, Bexar County, Texas, 78212, USA",29.45294294,-98.4880587
690,871,McKinney,"510, West Heard Street, McKinney, Collin County, Texas, 75069, USA",33.20465027,-96.61962981
691,872,McKinney,"8005, Laughin Waters Trail, Craig Ranch North, McKinney, Collin County, Texas, 75070, USA",33.16201868,-96.72106338
692,873,Corpus Christi,"14854, Windward Drive, Mustang-Padre Island, Corpus Christi, Nueces County, Texas, 78418, USA",27.60753607,-97.20797601
693,874,McKinney,"McKinney, Collin County, Texas, 75070, USA",33.17230782,-96.69635921
694,875,Canyon,"Owen Drive, Randall County, Texas, USA",35.02324216,-101.8576832
695,877,Houston,"2442, Oakdale Street, Houston, Harris County, Texas, 77004, USA",29.71972965,-95.37566152
696,879,Abilene,"Neas Road, Abilene, Taylor County, Texas, 79601, USA",32.51080057,-99.71625662
697,880,Galveston,"Unida Church, 18th Street, Galveston, Galveston County, Texas, 77550, USA",29.30704691,-94.78810571
698,881,Richmond,"7698, Village Mill Lane, Twin Oaks Village, Fort Bend County, Texas, 77407, USA",29.69298781,-95.69522799
699,884,Marble Falls,"120, Palmie Lane, Marble Falls, Burnet County, Texas, 78657, USA",30.55195473,-98.28466282
700,887,College Station,"1134, Neal Pickett Drive, Castle Rock Apartments, College Station, Brazos County, Texas, 77840, USA",30.63310465,-96.31252882
701,888,Temple,"Cross Drive, Temple, Bell County, Texas, 76508, USA",31.03919247,-97.36733881
702,891,Canyon,"10180, Palo Duro Drive, Randall County, Texas, 79015, USA",34.98513802,-101.7244731
703,894,College Station,"2491, Raintree Drive, Raintree, College Station, Brazos County, Texas, 77845, USA",30.62159218,-96.29010536
704,895,Dallas,"4141, Rosemeade Parkway, Dallas, Collin County, Texas, 75287, USA",33.01134545,-96.83865785
705,896,La Porte,"863, South Brownell Avenue, La Porte, Harris County, Texas, 77571, USA",29.66085055,-95.00623514
706,897,Horseshoe Bay,"185, Waters Edge, Horseshoe Bay, Llano County, Texas, 78657, USA",30.55750465,-98.39861941
707,898,Austin,"3108, Caleb Drive, Chaparral Crossing, Hornsby Bend, Travis County, Texas, 78725, USA",30.22968114,-97.58960717
708,899,Austin,"10901, Short Springs Drive, Pioneer Crossing East, Austin, Travis County, Texas, 78754, USA",30.36204379,-97.64594921
709,900,Bryan,"3508, Pioneer Circle, Bryan, Brazos County, Texas, 77808, USA",30.67392164,-96.33054603
710,901,Converse,"Converse, Bexar County, Texas, 78109, USA",29.5151791,-98.30550724
711,902,Spicewood,"Travis County, Texas, USA",30.40899131,-97.99535244
712,903,Austin,"2106, Riverview Street, Holly Power Plant, Austin, Travis County, Texas, 78702, USA",30.25090994,-97.72380143
713,904,Columbus,"722, Travis Street, Columbus, Colorado County, Texas, 78934, USA",29.71020206,-96.53967603
714,905,Tool,"Tool, Henderson County, Texas, USA",32.30601165,-96.17988225
715,907,Frisco,"9768, Boyton Canyon Road, Frisco, Collin County, Texas, 75035, USA",33.13784356,-96.79732662
716,908,Canyon Lake,"1272, Lakeshore Drive, Cranes Mill, Comal County, Texas, 78133, USA",29.92017978,-98.28811586
717,909,Fort Worth,"6904, Topanga Terrace, Fort Worth, Tarrant County, Texas, 76132, USA",32.64881241,-97.41376702
718,910,Denton,"505, Retama Street, Denton, Denton County, Texas, 76209, USA",33.25259075,-97.12641517
719,911,Corpus Christi,"1921, South Alameda Street, Corpus Christi, Nueces County, Texas, 78404, USA",27.77175677,-97.40011308
720,912,Crawford,"Jenkins Estates Drive, Caldwell Crossing, McLennan County, Texas, 76638, USA",31.5971241,-97.33870483
721,914,Bastrop,"141, Kahalulu Drive, Hills Prairie, Bastrop County, Texas, 78602, USA",30.08259227,-97.27522523
722,915,Travis County,"3404, American Drive, Lago Vista, Travis County, Texas, 78645, USA",30.43933255,-98.02089757
723,916,Dallas,"18383, Gallery Drive, Dallas, Collin County, Texas, 75252, USA",33.00136618,-96.80358957
724,917,Euless,"117, Constitution Drive, Euless, Tarrant County, Texas, 76040, USA",32.83555722,-97.08144983
725,919,Houston,"5298, Cullen Boulevard, Houston, Harris County, Texas, 77021, USA",29.70842038,-95.34848345
726,921,Katy,"Daniel Falls Lane, Waterstone, Harris County, Texas, 77449, USA",29.82154381,-95.76518975
727,922,Bellaire,"5039, Mayfair Street, Bellaire, Harris County, Texas, 77401, USA",29.71882622,-95.46677775
728,923,College Station,"236, Richards Street, Castle Rock Apartments, College Station, Brazos County, Texas, 77840, USA",30.61514289,-96.31107257
729,924,Fort Worth,"701, East Bluff Street, Fort Worth, Tarrant County, Texas, 76102, USA",32.76164455,-97.32868115
730,925,Austin,"15414, Fitzhugh Road, Hays County, Texas, 78620, USA",30.24546515,-98.03263478
731,928,Bastrop,"157, Redd Road, Riverside Grove, Bastrop, Bastrop County, Texas, 78602, USA",30.12326481,-97.33991202
732,933,Houston,"54, Windermere Lane, Piney Point Village, Harris County, Texas, 77063, USA",29.74262787,-95.52026131
733,935,The Woodlands,"Six Pines Drive, Avana Six Pines Apartments, Town Center, The Woodlands, Montgomery County, Texas, 77380, USA",30.1579568,-95.46179071
734,937,Houston,"Riva's, 1117, Missouri Street, Houston, Harris County, Texas, 77006, USA",29.74622426,-95.39220643
735,940,Seabrook,"Outrigger's, 101, Bath Avenue, Seabrook, Harris County, Texas, 77586, USA",29.55009918,-95.02379758
736,942,Tool,"599, Yawl Drive, Tool, Henderson County, Texas, 75143, USA",32.27741643,-96.15883856
737,944,Rockport,"758, Copano Cove Road, Aransas County, Texas, 78382, USA",28.06993197,-97.10975582
738,946,Carrollton,"Vaquero Lane, Mustang Park, Carrollton, Denton County, Texas, 75187, USA",33.03489229,-96.86525795
739,947,San Antonio,"289, Sadie Street, Lavaca, San Antonio, Bexar County, Texas, 78210, USA",29.41042577,-98.48564143
740,950,Houston,"2216, Lamar Street, Houston, Harris County, Texas, 77003, USA",29.74980197,-95.35505056
741,952,Seabrook,"4464, Spoonbill Drive, Seabrook, Harris County, Texas, 77586, USA",29.58307462,-95.01420299
742,953,Dallas,"18331, Roehampton Drive, Dallas, Collin County, Texas, 75252, USA",33.00043976,-96.8025189
743,956,Dallas,"1344, Stewart Drive, Bishop Arts District, Dallas, Dallas County, Texas, 75208, USA",32.75532904,-96.84328076
744,959,Bolivar Peninsula,"Sand Trout, Crystal Beach, Galveston County, Texas, 77650, USA",29.46517493,-94.61656459
745,960,Dallas,"North Central Expressway, Dallas, Dallas County, Texas, 75231, USA",32.89398314,-96.76928527
746,961,Dallas,"18331, Roehampton Drive, Dallas, Collin County, Texas, 75252, USA",33.00043976,-96.8025189
747,962,South Padre Island,"Padre Boulevard, South Padre Island, Cameron County, Texas, 78597, USA",26.08722496,-97.1625654
748,963,Lumberton,"10367, Cooks Lake Road, Loeb, Hardin County, Texas, 77657, USA",30.18677211,-94.16080814
749,964,Crystal Beach,"918, South Stingaree Drive, Bolivar Peninsula, Galveston County, Texas, 77650, USA",29.47086832,-94.59251148
750,965,New Braunfels,"15298, Meusebach Street, New Braunfels, Comal County, Texas, 78130, USA",29.70752693,-98.12685515
751,969,McKinney,"Community Avenue, McKinney, Collin County, Texas, 75071, USA",33.22590649,-96.64087478
752,971,Austin,"2905, Dillionhill Drive, Austin, Travis County, Texas, 78745, USA",30.21241656,-97.81700026
753,972,Alpine,"Centennial High School, West Avenue H, Alpine, Brewster County, Texas, 79830, USA",30.35335594,-103.6634845
754,973,Colleyville,"6076, Colts Neck Drive, Colleyville, Tarrant County, Texas, 76034, USA",32.89699558,-97.17519475
755,975,Smithville,"401, Vyvjala Road, Togo, Bastrop County, Texas, 78957, USA",29.93921616,-97.19376916
756,976,Boerne,"Spanish Pass Road, Nelson City, Kendall County, Texas, USA",29.8650139,-98.76931789
757,977,Early,"1802, Early Boulevard, Early, Brown County, Texas, 76802, USA",31.75531249,-98.91273215
758,978,Horseshoe Bay,"691, Rocky Road, Marble Falls, Burnet County, Texas, 78657, USA",30.55079537,-98.28505077
759,979,San Antonio,"5628, Edie Adams Drive, San Antonio, Bexar County, Texas, 78240, USA",29.50082449,-98.59626329
760,980,Corpus Christi,"14821, Leeward Drive, Mustang-Padre Island, Corpus Christi, Nueces County, Texas, 78418, USA",27.60925413,-97.20925053
761,982,Dallas,"9520, Hathaway Street, Dallas, Dallas County, Texas, 75220, USA",32.87359616,-96.81113384
762,983,Corpus Christi,"Surfside Sandwich Shoppe, 15113, South Padre Island Drive, Mustang-Padre Island, Corpus Christi, Nueces County, Texas, 78418, USA",27.6062592,-97.22321922
763,985,Point Venture,"18506, Lakehead Circle, Point Venture, Travis County, Texas, 78645, USA",30.38102721,-97.9974863
764,986,Austin,"8401, Cockney Drive, Buckingham Estates, Austin, Travis County, Texas, 78748, USA",30.18293916,-97.80146896
765,987,Denton,"Linden Drive, Denton, Denton County, Texas, 76201, USA",33.22370399,-97.1551938
766,988,Manor,"11900, Briarcreek Loop, Briarcreek, New Katy, Travis County, Texas, 78653, USA",30.31864462,-97.53576258
767,989,Universal City,"8676, Park Olympia, Universal City, Bexar County, Texas, 78148, USA",29.5592262,-98.31159311
768,990,Austin,"6064, Randleman Drive, Berdoll Farms, Austin, Travis County, Texas, 78617, USA",30.16857353,-97.61259908
769,991,Arlington,"2414, Springridge Drive, Arlington, Tarrant County, Texas, 76014, USA",32.69493241,-97.06551169
770,992,Austin,"411, Trinity Street, Dirty Sixth, Austin, Travis County, Texas, 78701, USA",30.26586594,-97.73991968
771,993,Katy,"3560, Paintbrush Dawn Court, Harris County, Texas, 77493, USA",29.82300157,-95.77779321
772,994,New Ulm,"1820, Track Road, New Ulm, Austin County, Texas, 78950, USA",29.89608649,-96.50383154
773,995,Benbrook,"2904, Rivergrove Court, Riverfork Way, Fort Worth, Tarrant County, Texas, 76116, USA",32.70586073,-97.41937586
774,996,Pflugerville,"Ruby Lace Road, Pflugerville, Travis County, Texas, 78660, USA",30.45307874,-97.58887996
775,997,Kemah,"340, Marina Oaks Court, League City, Galveston County, Texas, 77565, USA",29.54836928,-95.05559641
776,998,Temple,"Dunford Drive, Temple, Bell County, Texas, 76508, USA",31.04116692,-97.37133365
777,999,Austin,"1010, Weeping Willow Drive, Heritage Hills, Austin, Travis County, Texas, 78753, USA",30.34662521,-97.68895938
778,1000,Houston,"U-Haul Center, Pease Street, Houston, Harris County, Texas, 77003, USA",29.75055256,-95.3670027
779,1001,Austin,"Brush Square, 409, East 5th Street, Dirty Sixth, Austin, Travis County, Texas, 78701, USA",30.26571108,-97.73970572
780,1002,Spicewood,"Flying J Boulevard, Travis County, Texas, 78645, USA",30.40700626,-97.99409103
781,1003,Fort Worth,"2121, Mistletoe Avenue, Fort Worth, Tarrant County, Texas, 76110, USA",32.72877639,-97.34972928
782,1004,Belton,"7273, Woodlake Circle, Westcliff, Bell County, Texas, 76513, USA",31.11789479,-97.52638716
783,1005,Fort Worth,"International Leadership of Texas, Boca Raton Boulevard, Fort Worth, Tarrant County, Texas, 76112, USA",32.76796115,-97.22877591
784,1006,Temple,"734, Arrangement Way, Temple, Bell County, Texas, 76504, USA",31.07457811,-97.35822541
785,1007,Kemah,"Marina Bay Drive, Clear Lake Shores, Galveston County, Texas, 77565, USA",29.54158536,-95.03759757
786,1008,Houston,"Post Oak Boulevard, Highland Village, Houston, Harris County, Texas, 77027, USA",29.73472042,-95.46027121
787,1009,Galveston,"606, 17th Street, Galveston, Galveston County, Texas, 77550, USA",29.30531714,-94.78616527
788,1010,Dallas,"2246, Boll Street, Uptown PID, Dallas, Dallas County, Texas, 75204, USA",32.79523849,-96.79797574
789,1012,Grapevine,"1432, South Main Street, Grapevine, Tarrant County, Texas, 76051, USA",32.92610196,-97.07872744
790,1013,League City,"Signature Cove, The Peninsula at Clear Lake, League City, Galveston County, Texas, 77058, USA",29.53916485,-95.07861222
791,1014,Katy,"Pence Cliff Court, Fort Bend County, Texas, 77492, USA",29.77071032,-95.86093191
792,1015,Austin,"9479, El Rey Boulevard, Granada Estates, Cedar Valley, Travis County, Texas, 78737, USA",30.22408851,-97.91658965
793,1016,San Antonio,"314, Claremont Avenue, Government Hill, San Antonio, Bexar County, Texas, 78209, USA",29.4564367,-98.46312918
794,1017,Austin,"5400, Tetherland Trail, Meadows at Trinity Crossing, Austin, Travis County, Texas, 78724, USA",30.28413356,-97.64926704
795,1018,Austin,"406, Twin Creeks Road, Ashbrook, Manchaca, Travis County, Texas, 78652, USA",30.12541184,-97.81314411
796,1019,Fort Worth,"5437, Santa Marie Avenue, Fort Worth, Tarrant County, Texas, 76107, USA",32.74666025,-97.40170391
797,1021,Houston,"4717, Emancipation Avenue, Houston, Harris County, Texas, 77004, USA",29.72482108,-95.372522
798,1022,Austin,"3107, Leaf Circle, The Centrum, Austin, Travis County, Texas, 78759, USA",30.41367787,-97.71331169
799,1024,Austin,"11502, Bonham Lane, Travis County, Texas, 78736, USA",30.23575376,-98.00441151
800,1025,Katy,"Gaston Road, Avalon at Seven Meadows, Seven Meadows, Cinco Ranch, Fort Bend County, Texas, 77494, USA",29.70119015,-95.78441532
801,1027,Houston,"19317, Rio Villa Drive, Highlands, Harris County, Texas, 77049, USA",29.82935223,-95.08154949
802,1028,Navasota,"West Farquhar Street, Navasota, Grimes County, Texas, 77868, USA",30.38324297,-96.08592241
803,1029,Houston,"Amegy Bank, 2303, West Holcombe Boulevard, Houston, Harris County, Texas, 77030, USA",29.70582318,-95.41364837
804,1032,Marble Falls,"127, Palmie Lane, Marble Falls, Burnet County, Texas, 78657, USA",30.55231695,-98.2848241
805,1034,Houston,"356, Bremond Street, Houston, Harris County, Texas, 77006, USA",29.74920014,-95.37922124
806,1035,Kyle,"117, Briarwood Court, Springbranch, Kyle, Hays County, Texas, 78640, USA",30.00110692,-97.87627903
807,1036,Irving,"9000, Crown Point Circle, Valley Ranch, Irving, Dallas County, Texas, 75063, USA",32.93055549,-96.94416504
808,1037,Bastrop,"Earhardt Road, Goodman, Bastrop County, Texas, 78602, USA",30.15061016,-97.38697159
809,1038,Bellaire,"4806, Glenmont Street, Bellaire, Harris County, Texas, 77401, USA",29.720578,-95.46246252
810,1039,Rockport,"2296, North Fulton Beach Road, Fulton, Aransas County, Texas, 78382, USA",28.10288178,-97.02638104
811,1040,San Antonio,"La Fonda Alamo Heights, 8633, Crownhill Boulevard, Oak Park, San Antonio, Bexar County, Texas, 78209, USA",29.51422753,-98.46074394
812,1041,Crystal Beach,"941, Fisherman Drive South, Bolivar Peninsula, Galveston County, Texas, 77650, USA",29.47211274,-94.59357117
813,1042,Humble,"15099, Sunset Bay Court, Harris County, Texas, 77396, USA",29.93798364,-95.21750399
814,1043,Allen,"South Allen Heights Drive, Allen, Collin County, Texas, 75002, USA",33.09554669,-96.64233975
815,1044,Houston,"Columbia Tap Rail Trail, Houston, Harris County, Texas, 77004, USA",29.74502431,-95.34668795
816,1045,Seabrook,"Kirby Road, Kirby Place, Pasadena, Harris County, Texas, 77586, USA",29.58659695,-95.05722421
817,1048,San Antonio,"Mark Twain Middle School, Breeden Street, Alta Vista, San Antonio, Bexar County, Texas, 78212, USA",29.45610464,-98.50124789
818,1050,Corpus Christi,"15029, Aruba Drive, Mustang-Padre Island, Corpus Christi, Nueces County, Texas, 78418, USA",27.60519623,-97.2132209
819,1052,Houston,"3856, Linkwood Drive, Linkwood, Houston, Harris County, Texas, 77025, USA",29.68773648,-95.43844049
820,1053,Austin,"1412, Harvey Street, Rosewood, Austin, Travis County, Texas, 78702, USA",30.27893453,-97.7052902
821,1054,Horseshoe Bay,"Lighthouse Drive, Horseshoe Bay, Llano County, Texas, 78657, USA",30.56076864,-98.35913084
822,1057,Seabrook,"4464, Spoonbill Drive, Seabrook, Harris County, Texas, 77586, USA",29.58307462,-95.01420299
823,1058,San Antonio,"351, Devonshire Drive, San Antonio, Bexar County, Texas, 78209, USA",29.49350536,-98.44639227
824,1060,Dallas,"El Rancho, Haymeadow Drive, Richardson, Dallas County, Texas, 75240, USA",32.94314024,-96.77068634
825,1063,College Station,"2547, Raintree Drive, Raintree, College Station, Brazos County, Texas, 77845, USA",30.62234881,-96.29075489
826,1064,Houston,"477, Dennis Street, Houston, Harris County, Texas, 77006, USA",29.74764857,-95.37905164
827,1066,Houston,"2530, Morgan Street, Houston, Harris County, Texas, 77006, USA",29.74723666,-95.38666453
828,1067,Quitman,"635, Lloyd Avenue, Quitman, Wood County, Texas, 75783, USA",32.79946774,-95.44443096
829,1070,Fort Worth,"4632, El Campo Avenue, Fort Worth, Tarrant County, Texas, 76107, USA",32.73715191,-97.3891238
830,1071,San Antonio,"West Terra Alta Road, Oak Park, San Antonio, Bexar County, Texas, 78209, USA",29.50524068,-98.4722952
831,1076,League City,"1523, Viejo Road, League City, Galveston County, Texas, 77573, USA",29.48121733,-95.09219016
832,1078,Pontotoc,"County Road 373, San Saba County, Texas, USA",30.96121831,-99.00986225
833,1079,Arlington,"2614, Keystone Drive, Arlington, Tarrant County, Texas, 76006, USA",32.77946632,-97.10861574
834,1080,Houston,"El Cid Trail, Highlands, Harris County, Texas, 77562, USA",29.82785803,-95.0814124
835,1082,Aledo,"1243, Redbud Court, Annetta, Parker County, Texas, 76008, USA",32.70106068,-97.66979945
836,1083,Bellaire,"1203, Anderson Street, Bellaire, Harris County, Texas, 77081, USA",29.72099862,-95.46385156
837,1086,Corpus Christi,"Corpus Christi North Beach, Corpus Christi Beach Walk, Peoples Street T-Head, Downtown, Corpus Christi, Nueces County, Texas, 78402, USA",27.82656313,-97.38451275
838,1087,Austin,"9001, Indigo Sky Drive, The Woodlands, Austin, Travis County, Texas, 78724, USA",30.28285378,-97.62790944
839,1088,Arlington,"2643, Westgate Drive, Arlington, Tarrant County, Texas, 76015, USA",32.70239886,-97.14091661
840,1089,Krum,"6590, Spring Hill Lane, Denton, Denton County, Texas, 76249, USA",33.23350665,-97.24547763
841,1090,Shoreacres,"Bayou Forest Drive, Shoreacres, Harris County, Texas, 77571, USA",29.62489597,-95.03045156
842,1091,Dallas,"733, Texas Street, Deep Ellum PID, Dallas, Dallas County, Texas, 75204, USA",32.78930842,-96.78914904
843,1092,Kemah,"75, Mariners, League City, Galveston County, Texas, 77565, USA",29.54869422,-95.04235245
844,1093,Houston,"2300, McCue Road, Highland Village, Houston, Harris County, Texas, 77056, USA",29.7448082,-95.4646019
845,1094,Austin,"7201, Lookout Bluff Terrace, West Oak Hill, Austin, Travis County, Texas, 78735, USA",30.24241132,-97.873854
846,1095,Crystal Beach,"1117, Gulfview Road, Rancho Carribe, Patton Woods, Galveston County, Texas, 77650, USA",29.43834165,-94.66120392
847,1096,Temple,"Little River Road, Temple, Bell County, Texas, 76508, USA",31.05540295,-97.34039155
848,1097,Houston,"1000 Degrees Neapolitan Pizzeria, 18032, Saturn Lane, Nassau Bay, Harris County, Texas, 77058, USA",29.54895026,-95.09230483
849,1099,Corpus Christi,"14701, Whitecap Boulevard, Mustang-Padre Island, Corpus Christi, Nueces County, Texas, 78418, USA",27.60068802,-97.21604127
850,1105,Denton,"East Windsor Drive, Denton, Denton County, Texas, 76209, USA",33.24276568,-97.11244473
