,id,City,Address,lat,lon
1,1,Humble,"20521, Kenswick Drive, Bordersville, Harris County, Texas, 77338, USA",30.02013792,-95.29399599999999
2,3,Houston,"19317, Rio Villa Drive, Highlands, Harris County, Texas, 77049, USA",29.82935223,-95.08154949
3,4,Bryan,"775, Inwood Drive, Bryan, Brazos County, Texas, 77802, USA",30.63730428,-96.33784597
4,5,Fort Worth,"2723, East Carter Avenue, Fort Worth, Tarrant County, Texas, 76103, USA",32.74709735,-97.2864344
5,6,Conroe,"9163, Red Stag, Montgomery County, Texas, 77303, USA",30.370455199999995,-95.38531904
6,7,Cedar Creek,"Wa Drive, Wyldwood, Bastrop County, Texas, 78612, USA",30.10983831,-97.47341691
7,8,Fort Worth,"4974, Glen Eden Drive, Fort Worth, Tarrant County, Texas, 76115, USA",32.68961141,-97.29816086
8,9,Rockport,"North Fulton Beach Road, Copano Village, Aransas County, Texas, 78358, USA",28.10372572,-97.02583209
9,11,Irving,"3841, Cheyenne Street, Irving, Dallas County, Texas, 75038, USA",32.86211601,-97.00264291
10,12,Euless,"299, Fountainview Drive, Euless, Tarrant County, Texas, 76039, USA",32.86534832,-97.08103433
11,13,Round Mountain,"Nicholson Bluff Cv, Travis County, Texas, USA",30.35200485,-98.14624215
12,15,Kerrville,"699, Methodist Encampment Road, Kerrville, Kerr County, Texas, 78028, USA",30.07366703,-99.16136522
13,16,New Braunfels,"Legend Meadows, New Braunfels, Guadalupe County, Texas, USA",29.64281097,-98.11440066
14,17,Austin,"F T and Belle Ramsey House, Avenue B, Hyde Park, Austin, Travis County, Texas, 78751, USA",30.309521999999998,-97.73171047
15,19,Houston,"13009, Sweetgum Shores Drive, Harmaston, Harris County, Texas, 77044, USA",29.95468009,-95.17607029
16,20,Frisco,"12363, Redbud Lane, Denton County, Texas, 75034, USA",33.15577622,-96.9304385
17,22,College Station,"4355, Castlegate Drive, Castlegate, College Station, Brazos County, Texas, 77845, USA",30.54670384,-96.28285309
18,25,Denton,"Nirvana Smoke Shop, 215, North Carroll Boulevard, Denton, Denton County, Texas, 76201, USA",33.21614026,-97.13775675
19,27,Richmond,"17498, Aspen Ridge Court, Twin Oaks Village, Fort Bend County, Texas, 77407, USA",29.69552664,-95.69011086
20,28,Katy,"24518, Cornell Park Lane, Lakes at Grand Harbor, Harris County, Texas, 77494, USA",29.78091738,-95.79494512
21,30,Houston,"12998, Woodforest Boulevard, Greens Bayou, Harris County, Texas, 77015, USA",29.79337987,-95.19640052
22,32,Houston,"984, Villa de Matel Road, Houston, Harris County, Texas, 77023, USA",29.729390999999996,-95.31251441
23,33,Arlington,"2244, Mediterranean Avenue, Arlington, Tarrant County, Texas, 76011, USA",32.77038954,-97.09001198
24,38,Austin,"1603, Poquito Street, East Austin, Austin, Travis County, Texas, 78702, USA",30.27752338,-97.71919076
25,41,Killeen,"4475, Menard Drive, Killeen, Bell County, Texas, 76549, USA",31.08831396,-97.77755412
26,42,New Braunfels,"448, Napoleon Street, New Braunfels, Comal County, Texas, 78130, USA",29.70471393,-98.12010313
27,45,Abilene,"1351, Squires Road, Abilene, Taylor County, Texas, 79602, USA",32.43781002,-99.69983992
28,46,Austin,"14511, Deaf Smith Boulevard, Chaparral Crossing, Hornsby Bend, Travis County, Texas, 78725, USA",30.23294081,-97.58937812
29,47,Fort Worth,"1012, Garvey Street, Fort Worth, Tarrant County, Texas, 76102, USA",32.76650721,-97.32873671
30,49,Pasadena,"4381, Winterborne Drive, Village Grove, Pasadena, Harris County, Texas, 77505, USA",29.64732251,-95.13905355
31,51,San Antonio,"Connally Loop, San Antonio, Bexar County, Texas, 78217, USA",29.51605277,-98.43504461
32,52,Allen,"412, Irvine Drive, Watters Creek, Allen, Collin County, Texas, 75013, USA",33.09533497,-96.70009475
33,54,Humble,"7698, Desco Drive, Bordersville, Harris County, Texas, 77338, USA",30.01937977,-95.30818795
34,57,Fort Worth,"Amaranth Drive, Fort Worth, Tarrant County, Texas, 76428, USA",32.91753279,-97.33690001
35,59,Irving,"Irving, Dallas County, Texas, 75039, USA",32.88088953,-96.94281767
36,63,Houston,"El Paseo Street, Houston, Harris County, Texas, 77054, USA",29.68945181,-95.39325254
37,64,Bryan,"965, Stanfield Circle, Bryan, Brazos County, Texas, 77802, USA",30.64043947,-96.33804793
38,65,Houston,"2056, El Paseo Street, Houston, Harris County, Texas, 77054, USA",29.68889861,-95.39527326
39,66,Conroe,"754, Stonewall Jackson Drive, River Plantation, Montgomery County, Texas, 77302, USA",30.244725800000005,-95.43822709999999
40,67,San Antonio,"4336, Dauphine Drive, San Antonio, Bexar County, Texas, 78218, USA",29.48241384,-98.41001528
41,69,Concan,"Mountain Valley Road, Third Crossing, Uvalde County, Texas, 78838, USA",29.53213067,-99.69302161
42,70,Dallas,"3049, Tres Logos Lane, Dallas, Dallas County, Texas, 75228, USA",32.85329301,-96.66028827
43,71,Austin,"507, West Alpine Road, Dawson, Austin, Travis County, Texas, 78704, USA",30.23038507,-97.76581095
44,72,San Antonio,"8783, Tesoro Drive, San Antonio, Bexar County, Texas, 78217, USA",29.52007905,-98.45505578
45,76,Irving,"Tuscan Surgery Center at Las Colinas, 701, Tuscan Drive, Valley Ranch, Irving, Dallas County, Texas, 75039, USA",32.89803383,-96.95641306
46,77,McKinney,"171, South Greer Street, McKinney, Collin County, Texas, 75069, USA",33.19588921,-96.62907977
47,78,Conroe,"Montgomery County, Texas, 77385, USA",30.20343937,-95.42941103
48,79,College Station,"2977, Normand Drive, Southwood Valley, College Station, Brazos County, Texas, 77845, USA",30.58726186,-96.29515158
49,80,La Porte,"5642, Sugar Creek Drive, Creekmont, La Porte, Harris County, Texas, 77571, USA",29.66798325,-95.08367585
50,81,College Station,"2385, Colgate Circle, Castle Rock Apartments, College Station, Brazos County, Texas, 77840, USA",30.6133901,-96.30687282
51,82,Plano,"6899, Abernathy Street, Plano, Collin County, Texas, 75074, USA",33.067471000000005,-96.66369279999999
52,83,Fort Worth,"5525, Eastwedge Drive, Fort Worth, Tarrant County, Texas, 76137, USA",32.88156439,-97.2658547
53,84,Euless,"535, Calvary Drive, Euless, Tarrant County, Texas, 76040, USA",32.83118208,-97.10332628
54,86,Houston,"1428, Trailwood Village Drive, Houston, Harris County, Texas, 77339, USA",30.03683572,-95.22608777
55,87,San Antonio,"Camino Haven, The Enclave At Stonehaven, Bexar County, Texas, 78255, USA",29.70627939,-98.63299228
56,88,Irving,"3809, Flintridge Drive, Irving, Dallas County, Texas, 75038, USA",32.86410161,-96.99892108
57,89,Katy,"23367, Leaf Ridge Drive, Cinco Ranch, Fort Bend County, Texas, 77494, USA",29.75443391,-95.77315946
58,90,New Braunfels,"North Guenther Avenue, New Braunfels, Comal County, Texas, 78130, USA",29.70090884,-98.131561
59,91,Buchanan Dam,"98, Trinidad Street, Buchanan Dam, Llano County, Texas, 78609, USA",30.75022481,-98.41572007
60,92,Humble,"9498, Greencape Court, Dyersdale, Harris County, Texas, 77396, USA",29.92953838,-95.25096238
61,93,Baytown,"1908, North Main Street, Baytown, Harris County, Texas, 77520, USA",29.74584661,-94.96355953
62,94,Gary City,"217, County Road 191, Buncome, Panola County, Texas, 75643, USA",32.03804545,-94.45985039
63,95,Irving,"1955, Cloverleaf Lane, Irving, Dallas County, Texas, 75061, USA",32.83240526,-96.98926843
64,96,Bryan,"3669, Forestwood Drive, Saddlewood Apartments, Bryan, Brazos County, Texas, 77801, USA",30.630176300000002,-96.36748443
65,97,Houston,"Lowe's, Plum Creek Terrace Lane, Houston, Harris County, Texas, 77087, USA",29.69799127,-95.29893196
66,98,Eustace,"5798, County Road 1423, Henderson County, Texas, 75124, USA",32.22713635,-95.99408655
67,99,Conroe,"426, Oak Stream Drive, Conroe, Montgomery County, Texas, 77304, USA",30.28228127,-95.48712678
68,100,Colleyville,"5699, Texas Trail, Colleyville, Tarrant County, Texas, 76034, USA",32.89039189,-97.18186807
69,101,Mabank,"Sunray Street, Henderson County, Texas, 75156, USA",32.25334064,-96.08078979999999
70,102,Cibolo,"Schertz, Guadalupe County, Texas, 78108, USA",29.62122809,-98.22315851
71,103,New Braunfels,"176, Lakeview Boulevard, Landa Park Highlands, New Braunfels, Comal County, Texas, 78130, USA",29.716015999999996,-98.13737076
72,107,Allen,"1518, Pine Bluff Drive, Allen, Collin County, Texas, 75002, USA",33.09131167,-96.6306321
73,108,Pipe Creek,"175, Mountain View Lane, Bandera County, Texas, 78063, USA",29.72770471,-98.86898766
74,109,Houston,"8620, Findlay Street, Houston, Harris County, Texas, 77017, USA",29.69300158,-95.26477971
75,110,College Station,"1503, Pine Ridge Drive, College Station, Brazos County, Texas, 77840, USA",30.60723597,-96.31728311
76,111,Houston,"2301, Congress Street, Houston, Harris County, Texas, 77003, USA",29.75561922,-95.34945333
77,112,Austin,"Velasquez Sports Complex, Lady Bird Lake Hike and Bike Trail, Lakeshore, Austin, Travis County, Texas, 78741, USA",30.24962237,-97.72215443
78,117,Navasota,"360, Gibbs Street, Navasota, Grimes County, Texas, 77868, USA",30.38250015,-96.08396984
79,120,South Padre Island,"2028, Gulf Boulevard, South Padre Island, Cameron County, Texas, 78597, USA",26.0988938,-97.16416098
80,122,Houston,"8076, Grafton Street, Houston, Harris County, Texas, 77017, USA",29.69217133,-95.27834702
81,123,Corpus Christi,"Third Coast Beach Company, Headsail Avenue, Mustang-Padre Island, Corpus Christi, Nueces County, Texas, USA",27.61934852,-97.22201559
82,124,Granbury,"1402, South Chisholm Trail, Mambrino, Hood County, Texas, 76048, USA",32.39882076,-97.75762567
83,125,Houston,"5539, Hillman Street, Plaza Santa Clara, Houston, Harris County, Texas, 77023, USA",29.72643595,-95.31921338
84,127,Arlington,"6203, Castle Creek Road, Kennedale, Tarrant County, Texas, 76017, USA",32.66199838,-97.2060795
85,129,Port Aransas,"763, Access Rd 1-A, Mustang Beach, Port Aransas, Aransas County, Texas, 78373, USA",27.80544277,-97.08199531
86,130,Round Rock,"1609, Corn Hill Lane, Turtle Creek Village, Round Rock, Williamson County, Texas, 78664, USA",30.50945534,-97.65806608
87,135,Humble,"Hampton Hills Drive, Laurel Place, Moonshine Hill, Harris County, Texas, 77338:77346, USA",29.98656912,-95.22818386
88,136,Conroe,"14895, Greenbough, Bennette Estates, Grangerland, Montgomery County, Texas, 77302, USA",30.20567661,-95.35012473
89,137,Frisco,"11550, Clipper Circle, Stewart Peninsula, Denton County, Texas, 75034, USA",33.11616758,-96.92762318
90,138,Sealy,"Beckendorff Road, Rexville, Austin County, Texas, 77474, USA",29.70852238,-96.22426265
91,139,San Antonio,"1489, Blackbridge, The Woods, Bexar County, Texas, 78253, USA",29.44439593,-98.71742703
92,141,San Antonio,"4601, Emory Oak Woods, Woods of Shavano, San Antonio, Bexar County, Texas, 78249, USA",29.58112385,-98.57656207
93,142,College Station,"Harvey Road, Summit Crossing, College Station, Brazos County, Texas, 77840, USA",30.64207031,-96.28920321
94,143,Houston,"5814, Effingham Drive, Houston, Harris County, Texas, 77035, USA",29.646519800000004,-95.48921278
95,144,Cibolo,"421, Saddlehorn Way, Cibolo, Guadalupe County, Texas, 78108, USA",29.58497397,-98.21778634
96,145,Shenandoah,"Research Forest Drive, Town Center, Shenandoah, Montgomery County, Texas, 77384-5317, USA",30.17832473,-95.45222338
97,146,Brenham,"1885, FM 50, Independence, Washington County, Texas, 77833, USA",30.2006913,-96.36471719
98,147,San Antonio,"4317, Parkwood Drive, San Antonio, Bexar County, Texas, 78218, USA",29.48217334,-98.40900329
99,148,Schertz,"Gettysburg Drive, The Village Subdivision Unit 4, Schertz, Guadalupe County, Texas, 78154, USA",29.55967872,-98.25797103
100,149,Carrollton,"Lakecrest Court, Carrollton, Dallas County, Texas, 75006, USA",32.96345053,-96.85590903
101,150,New Ulm,"Track Road, New Ulm, Austin County, Texas, 78950, USA",29.89822345,-96.50467836
102,151,Hempstead,"Pierceall Road, Pine Island, Waller County, Texas, 77445, USA",30.04281773,-96.04410223
103,155,Granbury,"Williamson Road, Mambrino, Hood County, Texas, 76048, USA",32.38876928,-97.72726180000001
104,158,New Braunfels,"692, Comal Avenue, New Braunfels, Comal County, Texas, 78130, USA",29.69792115,-98.11524852
105,159,New Braunfels,"Comal River, South Gilbert Avenue, New Braunfels, Comal County, Texas, 78130, USA",29.7068023,-98.12265949
106,160,Kemah,"722, 6th Street, Kemah, Galveston County, Texas, 77565, USA",29.54380153,-95.0170362
107,161,Irving,"456, Lacebark Drive, Valley Ranch, Irving, Dallas County, Texas, 75063, USA",32.91786622,-96.95068721
108,163,Austin,"216, East 4th Street, Downtown, Austin, Travis County, Texas, 78701, USA",30.26594744,-97.74144275
109,164,Concan,"Third Crossing, Uvalde County, Texas, 78838, USA",29.54128208,-99.69037872
110,165,Richmond,"399, Waterside Estates Circle, Waterside Estates, Pecan Grove, Fort Bend County, Texas, 77406, USA",29.64864295,-95.7353304
111,166,Austin,"6017, Salcon Cliff Drive, Legend Oaks, Austin, Travis County, Texas, 78749, USA",30.20515821,-97.87828950000001
112,167,College Station,"Carriker Court, Royder, Brazos County, Texas, 77881, USA",30.51712322,-96.30567554
113,174,San Antonio,"6448, Ruffled Grouse, San Antonio, Bexar County, Texas, 78233, USA",29.56955298,-98.36259271
114,177,Corpus Christi,"Comfort Inn And Suites, Windward Drive, Mustang-Padre Island, Corpus Christi, Nueces County, Texas, USA",27.604834499999996,-97.21074843
115,179,Houston,"3025, Taft Street, Houston, Harris County, Texas, 77006, USA",29.74485117,-95.38589969
116,183,Dallas,"5223, East Side Avenue, Fair Park, Dallas, Dallas County, Texas, 75214, USA",32.79764909,-96.75905703
117,184,Richmond,"17459, Hanoverian Drive, Shiloh Lake Estates, Fort Bend County, Texas, 77407, USA",29.659385999999998,-95.69020939
118,185,Austin,"4501, Gillis Street, South Manchaca, Austin, Travis County, Texas, 78745, USA",30.22363485,-97.78329845
119,186,Austin,"1301, Cedar Avenue, Chestnut, Austin, Travis County, Texas, 78722, USA",30.275918400000002,-97.71321066
120,187,Dallas,"2629, Millmar Drive, Dallas, Dallas County, Texas, 75228, USA",32.82679167,-96.67012107
121,190,Dallas,"5426, McCommas Boulevard, Knox, Dallas, Dallas County, Texas, 75206, USA",32.82957241,-96.77609658
122,191,Lago Vista,"3404, American Drive, Lago Vista, Travis County, Texas, 78645, USA",30.44054759,-98.02017659
123,192,Rockport,"588, Newcomb Bend Loop, Holiday Beach, Aransas County, Texas, 78382, USA",28.16218221,-97.01599643
124,193,Tow,"1221, Manor Street, Buchanan Lake Village, Llano County, Texas, 78672, USA",30.85041949,-98.44988581
125,194,Rockport,"North Fulton Beach Road, Fulton, Aransas County, Texas, 78358, USA",28.100134000000004,-97.03050334
126,195,Bridgeport,"Rickels, Wise County, Texas, 76426, USA",33.16989692,-97.85160453
127,196,Kingsville,"906, West Lee Avenue, Kingsville, Kleberg County, Texas, 78363, USA",27.52007545,-97.87982068
128,200,Dallas,"Uptown PID, Dallas, Dallas County, Texas, 75204, USA",32.80743307,-96.79499383
129,202,Converse,"4015, Mistflower Drive, Bexar County, Texas, 78109, USA",29.46611326,-98.32325103
130,203,Lakeway,"718, Bermuda Street, Lakeway, Travis County, Texas, 78734, USA",30.371241100000002,-97.98738926
131,204,Corpus Christi,"354, Naples Street, Coopers Alley L-Head, Downtown, Corpus Christi, Nueces County, Texas, 78404, USA",27.77152417,-97.39531271
132,205,Dallas,"6006, Mercedes Avenue, Lower Greenville, Dallas, Dallas County, Texas, 75214, USA",32.82768128,-96.76334642
133,207,Brenham,"Edgar Matchett House, West Main Street, Brenham, Washington County, Texas, 77833, USA",30.1662184,-96.40225125
134,208,Galveston,"DoubleTree by Hilton Hotel Galveston Beach, Avenue O ½, Galveston, Galveston County, Texas, 77550, USA",29.29448803,-94.78369067
135,212,Euless,"Fountainview Drive, Euless, Tarrant County, Texas, 76039, USA",32.86431109,-97.08096908
136,213,Houston,"4190, Westpark Drive, Houston, Harris County, Texas, 77027, USA",29.72758048,-95.44585328
137,214,Bastrop,"A. A. Erhard House, Pecan Street, Bastrop, Bastrop County, Texas, 78602, USA",30.11212414,-97.31763093
138,215,San Antonio,"1572, Moonlit Grove, Wetmore, San Antonio, Bexar County, Texas, 78247, USA",29.57813711,-98.43065619
139,217,Houston,"2734, Mason Street, Houston, Harris County, Texas, 77006, USA",29.74603384,-95.38480976
140,219,Austin,"3216, Pearce Road, Austin, Travis County, Texas, 78730, USA",30.33816909,-97.82413058
141,221,Saginaw,"893, Willow Court, Saginaw, Tarrant County, Texas, 76179, USA",32.85276234,-97.37723606
142,228,McKinney,"6988, Wind Row Drive, McKinney, Collin County, Texas, 75070, USA",33.15732832,-96.70865246
143,229,Bandera,"205, 10th Street, Bandera, Bandera County, Texas, 78003, USA",29.722388,-99.07181852
144,231,Canyon,"White Fence Road, Randall County, Texas, 79016, USA",35.02061454,-101.9001074
145,232,Temple,"4763, Arrowhead Drive, Temple, Bell County, Texas, 76502, USA",31.08315027,-97.40213929999999
146,233,Austin,"2102, Keepsake Drive, Grand Oaks, Austin, Travis County, Texas, 78748, USA",30.18835401,-97.81606795
147,234,Little Elm,"3775, Misty Cove, Little Elm, Denton County, Texas, 75068, USA",33.15256985,-96.96912275
148,235,Richmond,"Victoria Springs Drive, Sonoma Ridge, Fort Bend County, Texas, 77407, USA",29.68569362,-95.72351852
149,236,League City,"3102, Sand Reef Lane, Bay Ridge, League City, Galveston County, Texas, 77573, USA",29.50904258,-95.03171378
150,237,Galveston,"Galveston City Hall, Rosenberg Avenue - 25th Street, Galveston, Galveston County, Texas, 77553, USA",29.30142486,-94.79507861
151,238,Rockport,"792, Copano Cove Road, Aransas County, Texas, 78382, USA",28.07069945,-97.10866929
152,239,Houston,"345, Drennan Street, Houston, Harris County, Texas, 77003, USA",29.74678384,-95.33610475
153,240,Corpus Christi,"Corpus Christi North Beach, Corpus Christi Beach Walk, Peoples Street T-Head, Downtown, Corpus Christi, Nueces County, Texas, 78402, USA",27.82631852,-97.38456603
154,241,League City,"901, Ponte Serena Drive, The Lakes at South Shore Harbor, League City, Galveston County, Texas, 77573, USA",29.51437679,-95.05881077
155,244,Dallas,"2122, North Peak Street, Lower Greenville, Dallas, Dallas County, Texas, 75204, USA",32.80439082,-96.78496543
156,245,Sugar Land,"6762, Charlton Street, Telfair, Sugar Land, Fort Bend County, Texas, 77479, USA",29.58141125,-95.65816858
157,246,Rockport,"54, Nassau Drive, Key Allegro, Rockport, Aransas County, Texas, 78382, USA",28.04548923,-97.02933703
158,249,Galveston,"Maravilla Resort Condominiums, 9520, Seawall Boulevard, Galveston, Galveston County, Texas, 77551, USA",29.24702215,-94.85914419
159,250,Galveston,"3623, Avenue S ½, Galveston, Galveston County, Texas, 77550, USA",29.28171507,-94.80228138
160,251,Seabrook,"4464, Spoonbill Drive, Seabrook, Harris County, Texas, 77586, USA",29.58307462,-95.01420299
161,252,Rogers,"12431, Reeds Lake Loop, Academy, Bell County, Texas, 76569, USA",30.966597200000002,-97.31752936
162,255,Fort Worth,"1812, Tremont Avenue, Fort Worth, Tarrant County, Texas, 76107, USA",32.74194821,-97.38246834
163,256,Harker Heights,"1627, Inca Drive, Harker Heights, Bell County, Texas, 76548, USA",31.06351199,-97.63620315
164,257,Austin,"4908, Alf Avenue, Johnston Terrace, Austin, Travis County, Texas, 78721, USA",30.26704789,-97.68989589
165,258,Terlingua,"Terlingua Ranch Road, Brewster County, Texas, 79852, USA",29.49263134,-103.3699133
166,259,Austin,"713, Brownlee Circle, Clarksville, Austin, Travis County, Texas, 78703, USA",30.27456699,-97.7580592
167,260,Houston,"8499, Hearth Drive, Houston, Harris County, Texas, 77054, USA",29.68086261,-95.41870216
168,261,Arlington,"Spring Hill Suites, East Lamar Boulevard, Arlington, Tarrant County, Texas, 76011, USA",32.76386606,-97.07894896
169,262,Hickory Creek,"1140, Point Vista Road, Hickory Creek, Denton County, Texas, 75065, USA",33.11962689,-97.03793115
170,263,Grapevine,"The Church of Jesus Christ of Latter-day Saints, 1143, Butterfield Drive, Grapevine, Tarrant County, Texas, 76051, USA",32.94863427,-97.06999168
171,264,Buda,"149, Feathergrass Drive, Green Meadows, Buda, Hays County, Texas, 78610, USA",30.05988156,-97.81432509999999
172,265,Dallas,"4333, McKinney Avenue, Knox, Knox Street PID, Dallas, Dallas County, Texas, 75205, USA",32.81926424,-96.78957175
173,266,College Station,"1596, Welsh Avenue, Callaway Villas, College Station, Brazos County, Texas, 77840, USA",30.59607091,-96.32442712
174,267,Houston,"El Camino Real, Houston, Harris County, Texas, 77062, USA",29.58231323,-95.14569045
175,269,Austin,"206, Clearday Drive, Buckingham Ridge, Austin, Travis County, Texas, 78745, USA",30.19237135,-97.7816127
176,270,Austin,"5714, Lark Creek Drive, Southeast Austin, Austin, Travis County, Texas, 78744, USA",30.1925213,-97.73138523
177,273,Corpus Christi,"4020, Claudia Drive, Flour Bluff, Corpus Christi, Nueces County, Texas, 78418, USA",27.61486949,-97.29735892
178,276,Harker Heights,"3656, Blanco Drive, Harker Heights, Bell County, Texas, 76548, USA",31.03481406,-97.64290786
179,277,Dallas,"8747, Tudor Place, Dallas, Dallas County, Texas, 75228, USA",32.81346713,-96.69909915
180,278,Temple,"Forrester Road, Hobbs, Bell County, Texas, 76502, USA",31.03456989,-97.40999289
181,279,White Settlement,"Sunset Court, White Settlement, Tarrant County, Texas, 76108, USA",32.74400632,-97.47084844
182,280,Austin,"9409, Southwick Drive, The Woodlands, Austin, Travis County, Texas, 78724, USA",30.27640783,-97.62591641
183,283,Fort Worth,"4000, Mattison Avenue, Fort Worth, Tarrant County, Texas, 76107, USA",32.74981109,-97.37726356
184,284,Austin,"2011, Montclaire Street, Barton Hills, Austin, Travis County, Texas, 78704, USA",30.2474314,-97.77883535
185,285,Grapevine,"1880, Greenhaven, Grapevine, Tarrant County, Texas, 76051, USA",32.88470079,-97.09228608
186,287,Fort Worth,"8828, Tyne Trail, Fort Worth, Tarrant County, Texas, 76118, USA",32.79677242,-97.18844706
187,288,Corpus Christi,"1100, Clarion Drive, Bay Area, Corpus Christi, Nueces County, Texas, 78412, USA",27.70556469,-97.34728353
188,289,Corpus Christi,"778, Lansdown Drive, Bay Area, Corpus Christi, Nueces County, Texas, 78412, USA",27.722743100000002,-97.37313063
189,291,Fort Worth,"2208, Hawthorne Avenue, Fort Worth, Tarrant County, Texas, 76110, USA",32.72065648,-97.34999946
190,292,New Braunfels,"East Mather Street, New Braunfels, Comal County, Texas, 78130, USA",29.70831063,-98.10963315
191,293,Dallas,"2008, Browder Street, South Dallas-Fair Park PID, Dallas, Dallas County, Texas, 75215, USA",32.76778958,-96.78739315
192,294,Dallas,"Ellis Street, Uptown PID, Dallas, Dallas County, Texas, 75204, USA",32.79816318,-96.79518007
193,296,Horseshoe Bay,"199, Oasis, Horseshoe Bay, Llano County, Texas, 78657, USA",30.54917047,-98.35774254
194,297,Denton,"3045, Weston Drive, Denton, Denton County, Texas, 76209, USA",33.21989289,-97.09816456
195,301,Houston,"4951, Rosa Allen Street, Houston, Harris County, Texas, 77017, USA",29.69235827,-95.24885425
196,306,Houston,"1111, Post Oak Boulevard, Highland Village, Houston, Harris County, Texas, 77056, USA",29.753256099999998,-95.45866314
197,307,Austin,"8605, Danville Drive, Heritage Hills, Austin, Travis County, Texas, 78753, USA",30.34622132,-97.68762240000001
198,313,Houston,"4773, Woodside Street, Houston, Harris County, Texas, 77023, USA",29.73771842,-95.32861856
199,314,Galveston,"2409, Avenue M, Galveston, Galveston County, Texas, 77550, USA",29.29682614,-94.79268816
200,316,Belton,"436 Spur Road, Little River, Bell County, Texas, 76554, USA",30.9959971,-97.40209915
201,317,Dallas,"1999, Ocalla Avenue, Dallas, Dallas County, Texas, 75218, USA",32.819962800000006,-96.70168684
202,320,Austin,"1309, Kittansett Cove, Austin, Travis County, Texas, 78746, USA",30.28254783,-97.82910595
203,324,Manor,"11900, Briarcreek Loop, Briarcreek, New Katy, Travis County, Texas, 78653, USA",30.31864462,-97.53576258
204,325,Killeen,"East Elms Road, Killeen, Bell County, Texas, 76542, USA",31.07640999,-97.72152696
205,326,Euless,"425, Sierra Drive, Euless, Tarrant County, Texas, 76040, USA",32.83298619,-97.11114517
206,327,Celina,"676, West Walnut Street, Celina, Collin County, Texas, 75009, USA",33.32453082,-96.79018068
207,328,Nacogdoches,"County Road 504, Hayward Junction, Nacogdoches County, Texas, 75961, USA",31.56407874,-94.62385177
208,329,Houston,"West Bellfort Street, Houston, Harris County, Texas, 77025, USA",29.67183631,-95.42347628
209,330,Dallas,"Ridgewood Trail, The Village, Dallas, Dallas County, Texas, 54231, USA",32.84624521,-96.74246166
210,331,Arlington,"Lot H, Road To Six Flags East, Arlington, Tarrant County, Texas, 76011, USA",32.75538087,-97.09107794
211,332,Rockport,"634, East Hackberry Street, Rockport, Aransas County, Texas, 78382, USA",28.01785092,-97.05727144
212,333,Austin,"2100, Paramount Avenue, Barton Hills, Austin, Travis County, Texas, 78704, USA",30.25230643,-97.77757215
213,334,Lakeway,"507, Highlander, Lakeway, Travis County, Texas, 78734, USA",30.36784292,-97.99805756
214,335,Rosenberg,"5118, Oakbriar Lane, Rosenberg, Fort Bend County, Texas, 77469, USA",29.50860228,-95.80310778
215,336,Arlington,"635, Waggoner Drive, Arlington, Tarrant County, Texas, 76013, USA",32.72803363,-97.14052401
216,337,McKinney,"510, West Heard Street, McKinney, Collin County, Texas, 75069, USA",33.20465027,-96.61962981
217,338,Brazoria,"201, Nevada Street, Brazoria, Brazoria County, Texas, 77422, USA",29.04309401,-95.57157115
218,339,Marble Falls,"699, Rocky Road, Marble Falls, Burnet County, Texas, 78657, USA",30.55120902,-98.28522492
219,340,Temple,"Cross Drive, Temple, Bell County, Texas, 76508, USA",31.03919247,-97.36733881
220,341,Lumberton,"10418, Cooks Lake Road, Loeb, Hardin County, Texas, 77657, USA",30.18544674,-94.16076597
221,342,Crosby,"1898, Littler Court, Newport, Magnolia Gardens, Harris County, Texas, 77532, USA",29.91546051,-95.09924451
222,348,La Porte,"3114, Hamilton Street, La Porte, Harris County, Texas, 77571, USA",29.62568246,-95.01226357
223,349,Port Aransas,"1923, South 11th Street, Mustang Beach, Port Aransas, Aransas County, Texas, 78373, USA",27.81626942,-97.07139977
224,351,Texas City,"2005, 19th Avenue North, Texas City, Galveston County, Texas, 77590, USA",29.402702899999998,-94.92380238
225,352,Marble Falls,"Hatchett Hill, Mormon Mill, Burnet County, Texas, 78654, USA",30.58938648,-98.2342699
226,355,Houston,"1502, Rutland Street, North Inner Loop, Houston, Harris County, Texas, 77008, USA",29.798169899999998,-95.4012972
227,356,Canton,"5543, Farm-to-Market Road 1651, Whitton, Van Zandt County, Texas, 75103, USA",32.47689543,-95.92646129
228,357,Lakeway,"718, Bermuda Street, Lakeway, Travis County, Texas, 78734, USA",30.37114346,-97.9874099
229,359,Leander,"13221, Misty Bend, Travis County, Texas, 78641, USA",30.50527204,-97.87717359999999
230,360,Amarillo,"6398, Arden Road, Amarillo, Randall County, Texas, 79109, USA",35.13213102,-101.90844759999999
231,361,Dripping Springs,"513, Cottonwood Creek Drive, Sunset Canyon, Fitzhugh, Hays County, Texas, 78620, USA",30.2140434,-98.02505807
232,364,Bryan,"3508, Pioneer Circle, Bryan, Brazos County, Texas, 77808, USA",30.67392164,-96.33054603
233,366,Austin,"1309, Olander Street, Swede Hill, Austin, Travis County, Texas, 78702, USA",30.27394395,-97.73043148
234,369,South Padre Island,"192, Pike Street, South Padre Island, Cameron County, Texas, 78597, USA",26.10288118,-97.16509496
235,370,Austin,"1508, Southport Drive, South Lamar, Austin, Travis County, Texas, 78704-7205, USA",30.23243969,-97.77998493
236,372,Austin,"3402, Govalle Avenue, Rosewood, Austin, Travis County, Texas, 78702, USA",30.26530049,-97.69991544
237,374,Port Isabel,"Garriga Elementary School, West Adams Street, Port Isabel, Cameron County, Texas, 78578, USA",26.07246239,-97.20946416
238,375,Fort Worth,"8800, Royal Harbor, Fort Worth, Tarrant County, Texas, 76179, USA",32.88370025,-97.45226113
239,376,Lago Vista,"3148, Thurman Road, Hudson Bend, Travis County, Texas, 78645, USA",30.41536328,-97.98457447
240,377,College Station,"823, University Oaks Boulevard, Sorority Row, College Station, Brazos County, Texas, 77840, USA",30.62176062,-96.3160046
241,378,Harlingen,"1105, East Williamson Avenue, North Pointe, Harlingen, Cameron County, Texas, 78550, USA",26.21102552,-97.68446173
242,379,South Padre Island,"Peninsula Island Resort and Spa, 340, Padre Boulevard, South Padre Island, Cameron County, Texas, 78597, USA",26.08756152,-97.16118837
243,380,College Station,"Holleman Drive East, Castle Rock Apartments, College Station, Brazos County, Texas, 77840, USA",30.61873048,-96.30951679
244,383,Bryan,"4708, Williamsburg Drive, Bryan, Brazos County, Texas, 77802, USA",30.66663304,-96.29978754
245,384,Leander,"11008, Beach Road, Nameless, Travis County, Texas, 78641, USA",30.49376826,-97.91400505
246,385,Austin,"5705, Westminster Drive, Windsor Park, Austin, Travis County, Texas, 78723, USA",30.31034353,-97.69072440000001
247,386,Austin,"4008, Maplewood Avenue, Delwood, Austin, Travis County, Texas, 78722, USA",30.29515512,-97.71293468
248,387,Bryan,"2799, Bayberry Court, Bryan, Brazos County, Texas, 77807, USA",30.62615729,-96.38565376
249,388,South Padre Island,"1400, Gulf Boulevard, South Padre Island, Cameron County, Texas, 78597, USA",26.09494541,-97.16351287
250,389,Houston,"Riva's, 1117, Missouri Street, Houston, Harris County, Texas, 77006, USA",29.74622426,-95.39220643
251,391,Arlington,"519, Waggoner Drive, Arlington, Tarrant County, Texas, 76013, USA",32.72943232,-97.14084642
252,392,Denton,"198, Peach Street, Denton, Denton County, Texas, 76209, USA",33.23611895,-97.13148007
253,393,New Braunfels,"135, East Main Street, New Braunfels, Comal County, Texas, 78130, USA",29.71130945,-98.120143
254,395,Corpus Christi,"Surfside Sandwich Shoppe, 15113, South Padre Island Drive, Mustang-Padre Island, Corpus Christi, Nueces County, Texas, 78418, USA",27.60664399,-97.22494796
255,396,Horseshoe Bay,"State Highway 29, Laguna Vista, Burnet County, Texas, 78611, USA",30.76671749,-98.34262529
256,398,New Braunfels,"Tubenbach, East Coll Street, New Braunfels, Comal County, Texas, 78130, USA",29.70367886,-98.11771244
257,402,Killeen,"5038, Greenlee Drive, Killeen, Bell County, Texas, 76542, USA",31.07246937,-97.69427626
258,403,Salado,"Stella Drive, Salado, Bell County, Texas, 76571, USA",30.94127931,-97.53317629
259,405,Dallas,"4124, Oak Lawn Avenue, Highland Park, Dallas County, Texas, 75219, USA",32.81870409,-96.80110468
260,406,Frisco,"Hidden Cove Marina, Hidden Cove Park, Stewart Peninsula, The Colony, Denton County, Texas, 75036, USA",33.12624931,-96.933584
261,408,Dallas,"10602, Stone Canyon Road, Dallas, Dallas County, Texas, 75230, USA",32.89208122,-96.77417884
262,412,San Antonio,"Wind Canyon, Converse, Bexar County, Texas, 78239, USA",29.52493112,-98.36023811
263,416,Austin,"6708, Circle South Road, Pleasant Hill, Austin, Travis County, Texas, 78745, USA",30.19100924,-97.77827214
264,418,Round Rock,"1506, Arusha Street, Spring Trails, Pflugerville, Travis County, Texas, 78664, USA",30.47043748,-97.64767859
265,421,Humble,"20069, Sunny Shores Drive, Houston, Harris County, Texas, 77346, USA",30.01090459,-95.15703021
266,423,Richmond,"7361, Wimberly Oaks Lane, Twin Oaks Village, Fort Bend County, Texas, 77407, USA",29.69821321,-95.69712429
267,424,Grand Prairie,"3042, Harrell Drive, Grand Prairie, Tarrant County, Texas, 75052, USA",32.68845993,-97.06090156
268,425,DeSoto,"1403, Dutchman Creek Drive, DeSoto, Dallas County, Texas, 75115, USA",32.59145416,-96.89523292
269,427,Spring,"2608, Rolling Glen Drive, Spring Lakes, Spring, Harris County, Texas, 77373, USA",30.07948315,-95.39830172
270,430,Breckenridge,"County Road 292, Eolian, Stephens County, Texas, USA",32.67663024,-99.03183966
271,431,Austin,"5312, Old Spicewood Springs Road, Adirondack, Austin, Travis County, Texas, 78731, USA",30.38300429,-97.76838274
272,433,San Antonio,"8783, Tesoro Drive, San Antonio, Bexar County, Texas, 78217, USA",29.52007905,-98.45505578
273,434,Port Aransas,"168, Keewaydin Lane, Port Aransas, Aransas County, Texas, 78373, USA",27.777522899999997,-97.10350383
274,436,Austin,"8113, Appomattox Drive, Southwest Oaks, Austin, Travis County, Texas, 78745, USA",30.19324162,-97.8180449
275,437,Elgin,"Jim Dandy Drive, Elgin, Bastrop County, Texas, 78621, USA",30.34822772,-97.3870842
276,439,Comfort,"State Highway 27, Comfort, Kendall County, Texas, USA",29.96565547,-98.91607738
277,440,Arlington,"South Bowen Road, Dalworthington Gardens, Tarrant County, Texas, 76016, USA",32.69075708,-97.14931638
278,442,Humble,"Church of Christ - Lake Houston, Farmingham Road, Golfers Village, Atascocita, Harris County, Texas, 77346, USA",29.99748178,-95.14725643
279,443,Sealy,"9424, Regenbrecht Lake Lane, Peters, Austin County, Texas, 77474, USA",29.8570942,-96.21374545
280,444,Kerrville,"2577, Bandera Highway, Kerrville, Kerr County, Texas, 78028, USA",30.00645822,-99.11604536
281,445,Burnet,"105, Kelly Drive, Rocky Point, Burnet County, Texas, 78611, USA",30.81330843,-98.37031289
282,446,Humble,"Bender Avenue, Humble, Harris County, Texas, 77338, USA",29.99630211,-95.26877101
283,447,Argyle,"184, Whispering Trail, Argyle, Denton County, Texas, 76226, USA",33.10742995,-97.14993133
284,448,Kerrville,"Clubhouse Road, Kerrville, Kerr County, Texas, USA",29.97977465,-99.12869005
285,449,Bryan,"2690, Lochinvar Lane, Bryan, Brazos County, Texas, 77802, USA",30.668432,-96.3412792
286,450,New Braunfels,"131, West Tanglewood Drive, New Braunfels, Comal County, Texas, 78130, USA",29.7214753,-98.14517937
287,451,Fort Worth,"3701, Huntwick Drive, Fort Worth, Tarrant County, Texas, 76123, USA",32.62737438,-97.37373806
288,452,Houston,"Liquor World Discount, Woodridge Square Drive, Houston, Harris County, Texas, 77087, USA",29.70332322,-95.29328932
289,453,Spring,"1799, West Welsford Drive, Rayford, Montgomery County, Texas, 77386, USA",30.13757365,-95.4132804
290,454,Irving,"9000, Crown Point Circle, Valley Ranch, Irving, Dallas County, Texas, 75063, USA",32.93055549,-96.94416504
291,456,Baytown,"Needlepoint Road, Baytown, Harris County, Texas, 77523, USA",29.81233029,-94.92913906
292,457,Fort Worth,"3913, Mattison Avenue, Fort Worth, Tarrant County, Texas, 76107, USA",32.74931088,-97.37602227
293,458,Humble,"19279, Hikers Trail Drive, Houston, Harris County, Texas, 77346, USA",29.9972706,-95.1452594
294,459,Harker Heights,"1627, Inca Drive, Harker Heights, Bell County, Texas, 76548, USA",31.06351199,-97.63620315
295,460,Spring,"Powerline Pass Drive, Spring, Harris County, Texas, 77373, USA",30.07152715,-95.37054536
296,461,Baytown,"368, East Cedar Bayou Lynchburg Road, Baytown, Harris County, Texas, 77521, USA",29.77817255,-94.95967759
297,463,Red Oak,"1238, Pratt Road, Red Oak, Ellis County, Texas, 75154, USA",32.53439907,-96.75423225
298,464,Corinth,"1892, Morning Glory Drive, Corinth, Denton County, Texas, 76210, USA",33.14505778,-97.08167652
299,465,Frisco,"12856, Gillon Drive, Frisco, Collin County, Texas, 75035, USA",33.18438575,-96.79858778
300,466,Del Valle,"7200, Kellam Road, Berdoll Farms, Austin, Travis County, Texas, 78617, USA",30.15604462,-97.61940563
301,467,Corpus Christi,"2285, Meadowcreek Drive, South Side, Corpus Christi, Nueces County, Texas, 78414, USA",27.68649455,-97.35794942
302,468,Granbury,"3960, Quail Ridge Court, Waples, Hood County, Texas, 76049, USA",32.47825287,-97.72536901
303,469,College Station,"612, Holleman Drive, Callaway Villas, College Station, Brazos County, Texas, 77840, USA",30.60092992,-96.32690755
304,470,Dallas,"1337, Plowman Avenue, Bishop Arts District, Dallas, Dallas County, Texas, 75203, USA",32.75955203,-96.82027481
305,471,Irving,"3830, Marcillia Circle, Irving, Dallas County, Texas, 75038, USA",32.86502386,-96.99872175
306,472,Corpus Christi,"354, Naples Street, Coopers Alley L-Head, Downtown, Corpus Christi, Nueces County, Texas, 78404, USA",27.77152417,-97.39531271
307,473,Austin,"11403, Hidden Quail Drive, Quail Hollow, Austin, Travis County, Texas, 78758, USA",30.39069951,-97.70127237
308,474,Tomball,"East Hufsmith Road, Raleigh Creek, Tomball, Harris County, Texas, 77375, USA",30.11065476,-95.60809533
309,475,Fort Worth,"4720, Norma Street, Fort Worth, Tarrant County, Texas, 76112, USA",32.742816600000005,-97.25294085
310,476,Shady Shores,"100, Shahan Drive, Shady Shores, Denton County, Texas, 76208, USA",33.15982766,-97.02829516
311,477,Hutto,"134, Campos Drive, Hutto, Williamson County, Texas, 78634, USA",30.53770881,-97.5466165
312,478,Austin,"11803, Hornsby Street, Oak Ridge, Austin, Travis County, Texas, 78753, USA",30.38616415,-97.68003864
313,479,Port Aransas,"Port Aransas, Aransas County, Texas, 78373, USA",27.81404327,-97.07114957
314,480,Corpus Christi,"Corpus Christi North Beach, Corpus Christi Beach Walk, Peoples Street T-Head, Downtown, Corpus Christi, Nueces County, Texas, 78402, USA",27.82503642,-97.38508646
315,482,Corpus Christi,"Corpus Christi North Beach, Corpus Christi Beach Walk, Peoples Street T-Head, Downtown, Corpus Christi, Nueces County, Texas, 78402, USA",27.82558546,-97.38489809
316,483,Lago Vista,"3404, American Drive, Lago Vista, Travis County, Texas, 78645, USA",30.43893057,-98.0216698
317,486,Irving,"7828, Southfork Bend, Campion Hollows, Valley Ranch, Irving, Dallas County, Texas, 75063, USA",32.91414569,-96.94498429
318,489,Katy,"Park Row, Barker, Harris County, Texas, 77094, USA",29.78949361,-95.72990639
319,490,Carrollton,"Kellway Drive, Carrollton, Dallas County, Texas, 75006, USA",32.97270736,-96.84875793
320,491,Fort Worth,"6769, Confederate Park Road, Castle Hill Estate, Tarrant County, Texas, 76108, USA",32.82239369,-97.51142775
321,494,Houston,"14838, Cobre Valley Drive, Houston, Harris County, Texas, 77062, USA",29.58017374,-95.13687659
322,495,Houston,"Macedonia Missionary Baptist Church, Wilson Street, Houston, Harris County, Texas, 77019, USA",29.75521217,-95.38133653
323,497,San Antonio,"8701, Welles Dale Drive, San Antonio, Bexar County, Texas, 78240, USA",29.52542189,-98.60656678
324,498,Abilene,"Pine Street, Abilene, Taylor County, Texas, 79698, USA",32.45932687,-99.73201648
325,500,Katy,"21247, Park Bend Drive, Memorial Parkway, Harris County, Texas, 77450, USA",29.76481827,-95.73556473
326,501,Conroe,"9905, Lace Flower Way, Harper's Landing, Montgomery County, Texas, 77385, USA",30.21786909,-95.42788742
327,503,Round Rock,"Settlers Crossing, Williamson County, Texas, 78634, USA",30.54834057,-97.60498939
328,504,Houston,"7874, Bonaire Street, Houston, Harris County, Texas, 77028, USA",29.81082365,-95.28567328
329,507,Port Aransas,"798, Island Retreat Road, Mustang Beach, Port Aransas, Aransas County, Texas, 78373, USA",27.81324328,-97.07179496
330,512,Irving,"3207, Finley Road, Irving, Dallas County, Texas, 75062, USA",32.85074573,-96.98889558
331,513,San Antonio,"15316, Pebble Sound, San Antonio, Bexar County, Texas, 78232, USA",29.58181665,-98.44024234
332,514,Houston,"2286, Truxillo Street, Houston, Harris County, Texas, 77004, USA",29.73053131,-95.36952978
333,516,Houston,"1369, Woodyard Drive, Westfield, Harris County, Texas, 77073, USA",29.98790215,-95.40261181
334,518,Houston,"5561, Winding Creek Way, Houston, Harris County, Texas, 77017, USA",29.68104725,-95.2371554
335,520,Cedar Park,"Fall Creek Loop, Cedar Park, Williamson County, Texas, 78613, USA",30.48437502,-97.83412433
336,521,Comfort,"Otto Brinkmann House, High Street, Comfort, Kendall County, Texas, USA",29.96729402,-98.90894373
337,522,Houston,"79, East Briar Hollow Lane, Highland Village, Houston, Harris County, Texas, 77027, USA",29.74811321,-95.4487467
338,525,Port Isabel,"774, East Clam Circle, Cameron County, Texas, 78578, USA",26.06234802,-97.20465145
339,527,Blanco,"Crabapple Road, Kendalia, Kendall County, Texas, 78027, USA",30.02644958,-98.53455585
340,529,Temple,"399, Starlight Drive, Temple, Bell County, Texas, 76502, USA",31.12595638,-97.44777633
341,531,Kyle,"162, Gardner Road, Niederwald, Hays County, Texas, 78640, USA",30.03122341,-97.76088109
342,537,Corpus Christi,"South Side, Corpus Christi, Nueces County, Texas, 78414, USA",27.66046321,-97.37034329
343,540,Austin,"2009, Haskell Street, East Cesar Chavez, Austin, Travis County, Texas, 78702, USA",30.25163257,-97.72475514
344,543,Irving,"7092, Angelina Drive, Valley Ranch, Irving, Dallas County, Texas, 75039, USA",32.90408962,-96.94435929
345,544,Houston,"Lake Houston Parkway, King's Harbor, Houston, Harris County, Texas, 77345, USA",30.03661788,-95.17443118
346,546,Houston,"14840, Richmond Avenue, Houston, Harris County, Texas, 77082, USA",29.72933109,-95.64955181
347,548,Del Valle,"12520, Paloma Blanca Way, Meadows at Berdoll, Austin, Travis County, Texas, 78716, USA",30.16787835,-97.62768327
348,549,College Station,"1517, Wolf Run, Callaway Villas, College Station, Brazos County, Texas, 77840, USA",30.61356999,-96.32460569
349,550,College Station,"2730, Silver Oak Drive, Sonoma, College Station, Brazos County, Texas, 77845, USA",30.555699800000003,-96.29075982
350,551,Spring,"42, Waning Moon Drive, Spincaster South, Creekside Park, The Woodlands, Harris County, Texas, 77389, USA",30.14540125,-95.5337605
351,552,Ingram,"103, Old Ingram Loop, Ingram, Kerr County, Texas, 78025, USA",30.07155061,-99.24222187
352,554,Port Aransas,"Mustang Beach, Port Aransas, Aransas County, Texas, 78373, USA",27.81298345,-97.07736358
353,556,Spring,"Childres Pond, Cayuga Pond Court, Wilde Creek, Creekside Park, The Woodlands, Harris County, Texas, 77381, USA",30.14161649,-95.51416179
354,558,Dallas,"305, West 8th Street, Bishop Arts District, Dallas, Dallas County, Texas, 75208, USA",32.74836087,-96.82689832
355,560,San Antonio,"14398, Briarbend Street, Wetmore, San Antonio, Bexar County, Texas, 78247, USA",29.57599757,-98.41292154
356,561,McKinney,"8008, White Stallion Trail, Craig Ranch North, McKinney, Collin County, Texas, 75070, USA",33.157970399999996,-96.71850054
357,562,Kemah,"617, 8th Street, Kemah, Galveston County, Texas, 77565, USA",29.54175984,-95.01779754
358,565,Cibolo,"180, Glen Eagles Drive, Cibolo, Guadalupe County, Texas, 78108, USA",29.58220176,-98.24507819
359,569,Crystal Beach,"857, Buell, Patton Woods, Galveston County, Texas, 77650, USA",29.44145694,-94.65602821
360,570,Arlington,"2367, Vineyard Drive, Arlington, Tarrant County, Texas, 76015, USA",32.6978023,-97.14516078
361,571,Fort Worth,"5740, Tiger Trail, Fort Worth, Tarrant County, Texas, 76126, USA",32.6315831,-97.48943983
362,572,Fort Worth,"Haltom City, Tarrant County, Texas, 76117, USA",32.82215465,-97.2628336
363,573,Bryan,"Old College Road, Saddlewood Apartments, Bryan, Brazos County, Texas, 77801, USA",30.62619406,-96.35514901
364,576,Katy,"McDonough Way, Grand Meadow, Fort Bend County, Texas, USA",29.74578557,-95.86978786
365,577,McKinney,"North College Street, McKinney, Collin County, Texas, 75069, USA",33.19830537,-96.62097576
366,579,San Antonio,"930, Carmel Place, Fulton, San Antonio, Bexar County, Texas, 78201, USA",29.46996713,-98.51005140000001
367,580,Aubrey,"Providence Village, New Hope, Denton County, Texas, 76227, USA",33.24389912,-96.96188599999999
368,582,Arlington,"500, Whistler Drive, Arlington, Tarrant County, Texas, 76006, USA",32.78655129,-97.11180920000001
369,584,Bryan,"978, East William J Bryan Parkway, Bryan, Brazos County, Texas, 77803, USA",30.67375207,-96.36416366
370,587,Corpus Christi,"14856, Windward Drive, Mustang-Padre Island, Corpus Christi, Nueces County, Texas, 78418, USA",27.60754107,-97.20785067
371,589,Richmond,"Grand Vista, Fort Bend County, Texas, 77407, USA",29.67640397,-95.71284389
372,590,Brookshire,"County Line Road, Fort Bend County, Texas, USA",29.7264327,-95.99619335
373,591,Grapevine,"1245, South Pine Street, Grapevine, Tarrant County, Texas, 76051, USA",32.92816901,-97.08025040000001
374,593,Abilene,"South 11th Street, Abilene, Taylor County, Texas, 79605, USA",32.4371233,-99.74383276
375,602,Houston,"429, Columbia Street, North Inner Loop, Houston, Harris County, Texas, 77007, USA",29.77841683,-95.39310038
376,603,Austin,"4413, Shoalwood Avenue, Rosedale, Austin, Travis County, Texas, 78756, USA",30.31628164,-97.74503416
377,604,Houston,"1639, Kipling Street, Houston, Harris County, Texas, 77006, USA",29.7403401,-95.40040988
378,609,Houston,"5135, Dincans Street, Houston, Harris County, Texas, 77005, USA",29.72664149,-95.41992229
379,610,Fulshear,"Addison Ranch Lane, The Heights, Fort Bend County, Texas, USA",29.72396219,-95.8489102
380,613,Houston,"Wharton Elementary School, Columbus Street, Houston, Harris County, Texas, 77019, USA",29.75363112,-95.39079165
381,617,Austin,"East Parmer Lane, Harris Ridge, Austin, Travis County, Texas, 78753, USA",30.39649171,-97.65447882
382,619,Dallas,"5684, Preston Oaks Road, Dallas, Dallas County, Texas, 75254, USA",32.94246463,-96.81118119
383,620,Austin,"5220, Farm-to-Market Road 973, Austin, Travis County, Texas, 78724, USA",30.265980199999998,-97.60894724
384,621,Houston,"1228, Hadley Street, Houston, Harris County, Texas, 77003, USA",29.74596965,-95.37063915
385,622,Graham,"Ffa Lane, Palo Pinto County, Texas, USA",32.88911051,-98.55729222
386,624,Houston,"Houston, Harris County, Texas, 77025-9998, USA",29.67901668,-95.41748298
387,625,Roanoke,"Cleveland Gibbs Road, Fort Worth, Denton County, Texas, 76177, USA",33.01264867,-97.26721738
388,627,South Padre Island,"3346, Padre Boulevard, South Padre Island, Cameron County, Texas, 78597, USA",26.10858983,-97.1691212
389,628,Grand Prairie,"1479, California Trail, Grand Prairie, Dallas County, Texas, 75052, USA",32.65090384,-97.02232222
390,630,La Porte,"3506, East Country Club Drive, Shoreacres, Harris County, Texas, 77571, USA",29.61864332,-95.01961738
391,631,Irving,"200, Victory Court, Valley Ranch, Irving, Dallas County, Texas, 75063, USA",32.9459899,-96.94496405
392,632,Houston,"1999, Baird Street, Houston, Harris County, Texas, 77023, USA",29.73036322,-95.32606682
393,633,San Antonio,"4687, Emory Oak Woods, Woods of Shavano, San Antonio, Bexar County, Texas, 78249, USA",29.5812718,-98.57506764
394,634,College Station,"Lot 49, Raymond Stotzer Parkway, University Apartments - The Gardens, College Station, Brazos County, Texas, 77841, USA",30.61620289,-96.34843879
395,635,Rosanky,"Sandy Lane, Jordan, Bastrop County, Texas, USA",29.94914519,-97.33242022
396,636,Elgin,"11500, Maize Lane, Littig, Travis County, Texas, 78621, USA",30.31517576,-97.43482131
397,638,Austin,"2030, East Oltorf Street, East Riverside - Oltorf, Austin, Travis County, Texas, 00787, USA",30.23032205,-97.73164775
398,640,San Antonio,"Amazing Air, 7702, I-35 Frontage Road, San Antonio, Bexar County, Texas, 78218, USA",29.50442733,-98.39618636
399,643,Bacliff,"Misty Lane, Clifton Beach, Galveston County, Texas, 77518, USA",29.50528796,-94.97351296
400,644,Abilene,"1181, Santos Street, Abilene, Taylor County, Texas, 79605, USA",32.4361402,-99.74995418
401,648,Grapevine,"2832, Columbine Drive, Grapevine, Tarrant County, Texas, 76051, USA",32.91367765,-97.10973881
402,653,Mineola,"314, County Road 2482, Mount Enterprise, Wood County, Texas, 75773, USA",32.73535509,-95.47547998
403,657,Bolivar Peninsula,"132, Ocean View Drive, Holiday Shores, Bolivar Beach, Galveston County, Texas, 77650, USA",29.41790182,-94.69458451
404,658,Port Aransas,"201, North Station Street, Port Aransas, Aransas County, Texas, 78373, USA",27.83238362,-97.05991032
405,659,Lakeway,"122, Lakeway Drive, Lakeway, Travis County, Texas, 78734, USA",30.37242616,-97.98902879
406,661,Fort Worth,"3209, West Biddison Street, Fort Worth, Tarrant County, Texas, 76109, USA",32.69885762,-97.36338168
407,665,Crystal Beach,"Crystal Beach, Galveston County, Texas, 77650, USA",29.451106699999997,-94.63123514
408,666,Brazoria,"Hinkles Ferry, Brazoria County, Texas, USA",28.96613979,-95.55685185
409,667,Aransas Pass,"267, West Spencer Avenue, Aransas Pass, San Patricio County, Texas, 78336, USA",27.89877182,-97.15095865
410,668,Alpine,"170, East Avenue D, Alpine, Brewster County, Texas, 79830, USA",30.35930941,-103.66127370000001
411,670,Dallas,"8457, Coppertowne Lane, Lake Highlands, Dallas, Dallas County, Texas, 75243, USA",32.89533198,-96.72748734
412,673,Austin,"3807, Lago Vista Drive, Mountain View, Hudson Bend, Travis County, Texas, 78734, USA",30.39359714,-97.91837548
413,676,Houston,"14688, Cobre Valley Drive, Houston, Harris County, Texas, 77062, USA",29.58393606,-95.13807558
414,682,Corpus Christi,"14279, Elbow Street, Mustang-Padre Island, Corpus Christi, Nueces County, Texas, 78418, USA",27.59028225,-97.22479713
415,683,Houston,"3482, Mc Ashan Street, Houston, Harris County, Texas, 77003, USA",29.75152763,-95.33785654
416,684,Austin,"1180, Waller Street, Central East Austin, Austin, Travis County, Texas, 78702, USA",30.27133423,-97.728335
417,686,Fort Worth,"4936, Pershing Avenue, Fort Worth, Tarrant County, Texas, 76107, USA",32.73588912,-97.39473299
418,688,Grapevine,"Tanglewood Drive, Grapevine, Tarrant County, Texas, 76051, USA",32.92090232,-97.10871018
419,689,Sugar Land,"3199, Stratford Bend Drive, Stratford Park, Fort Bend County, Texas, 77498, USA",29.63006492,-95.67475381
420,691,Dallas,"10602, Stone Canyon Road, Dallas, Dallas County, Texas, 75230, USA",32.89208122,-96.77417884
421,695,Fort Worth,"3536, Ramona Drive, Fort Worth, Tarrant County, Texas, 76116, USA",32.72013655,-97.44514523
422,697,Austin,"West Parmer Lane, Hunter's Chase, Jollyville, Turkey Hollow, Williamson County, Texas, 78729, USA",30.46144501,-97.75589227
423,700,Humble,"8976, Elm Drake Lane, Bordersville, Harris County, Texas, 77338, USA",30.00865434,-95.28784123
424,701,Galveston,"7104, Seawall Boulevard, Galveston, Galveston County, Texas, 77551, USA",29.26225623,-94.8350873
425,703,Bolivar Peninsula,"151, Ocean Shore Drive, Holiday Shores, Bolivar Beach, Galveston County, Texas, 77650, USA",29.41784386,-94.69402579999999
426,705,Seabrook,"1201, 2nd Street, Seabrook, Harris County, Texas, 77586, USA",29.56053028,-95.02114673
427,706,Fort Worth,"6245, Calmont Avenue, Fort Worth, Tarrant County, Texas, 76116, USA",32.73416186,-97.42122359999999
428,707,San Antonio,"417, Eleanor Avenue, Government Hill, San Antonio, Bexar County, Texas, 78209, USA",29.45491883,-98.46599275
429,709,Alvin,"15241, CR 185, Alvin, Brazoria County, Texas, 77511, USA",29.37048217,-95.27562949
430,710,New Braunfels,"Peace Avenue, New Braunfels, Comal County, Texas, 78130, USA",29.70876558,-98.10865456
431,713,Pflugerville,"807, Harvard Drive, Settler's Ridge, Pflugerville, Travis County, Texas, 78660, USA",30.43394466,-97.63101253
432,714,Richmond,"6971, Chapel Meadow Lane, Presidio Point, Cinco Ranch, Fort Bend County, Texas, 77407, USA",29.70264681,-95.72274771
433,715,Austin,"13108, Kellies Farm Lane, Lamplight Village, Austin, Travis County, Texas, 78727, USA",30.42606528,-97.69422637
434,716,San Antonio,"8552, Sage Brush Lane, San Antonio, Bexar County, Texas, 78217, USA",29.51787263,-98.44621693
435,717,Rockport,"281, Pintail Lane, Copano Village, Aransas County, Texas, 78382, USA",28.06908008,-97.10130009
436,721,Mabank,"120, Bluffview Drive, Henderson County, Texas, 75156, USA",32.23194307,-96.04944259
437,722,San Antonio,"140, Fayn Way, Dignowity Hill, San Antonio, Bexar County, Texas, 78202, USA",29.43057858,-98.47557689
438,723,Houston,"2126, Bering Drive, Houston, Harris County, Texas, 77057, USA",29.74421227,-95.47937092
439,724,Frisco,"13015, Cowper Drive, Frisco, Collin County, Texas, 75035, USA",33.18540951,-96.79799006
440,725,Nederland,"1043, North 12th Street, Nederland, Jefferson County, Texas, 77627, USA",29.97961707,-93.99760022
441,726,Houston,"955, West 24th Street, North Inner Loop, Houston, Harris County, Texas, 77008, USA",29.80815598,-95.41532948
442,727,McKinney,"West White Street, McKinney, Collin County, Texas, 75069, USA",33.20897657,-96.61915733
443,731,Austin,"7700, Kiva Drive, Maple Run, Austin, Travis County, Texas, 78749, USA",30.21732537,-97.85913684
444,732,Houston,"1431, Hazel Street, Houston, Harris County, Texas, 77019, USA",29.75496094,-95.3957613
445,733,Balch Springs,"14998, Bell Manor Court, Balch Springs, Dallas County, Texas, 75180, USA",32.70812459,-96.58768558
446,736,Bryan,"2264, Echols Street, Saddlewood Apartments, Bryan, Brazos County, Texas, 77801, USA",30.64807751,-96.36386039
447,742,Houston,"Space Center Boulevard, Houston, Harris County, Texas, 77062, USA",29.58930039,-95.13550118
448,743,Crystal Beach,"South Crystal Beach Road, Crystal Beach, Galveston County, Texas, 77650, USA",29.45600792,-94.63845481
449,744,Houston,"Brays Bayou Greenway, Houston, Harris County, Texas, 77025-9998, USA",29.69772549,-95.41817661
450,745,Round Rock,"1103, Parkside Circle, Turtle Creek Village, Round Rock, Williamson County, Texas, 78664, USA",30.49733644,-97.66621913
451,747,Corpus Christi,"389, Troy Drive, Bay Area, Corpus Christi, Nueces County, Texas, 78412, USA",27.72259219,-97.34866914
452,749,Arlington,"7237, Matlock Road, Mansfield, Tarrant County, Texas, 76002, USA",32.62791946,-97.11515377
453,754,Austin,"12321, Ferrystone Glen Drive, Stoney Ridge North, Moores Crossing, Travis County, Texas, 78617, USA",30.16076245,-97.63434740000001
454,758,San Antonio,"646, West Magnolia Avenue, Alta Vista, San Antonio, Bexar County, Texas, 78212, USA",29.45450196,-98.50354655
455,762,Cibolo,"1900, Town Creek Road, Cibolo, Guadalupe County, Texas, 78108, USA",29.58771384,-98.24022944
456,763,San Antonio,"554, Alta Avenue, Alamo Heights, Bexar County, Texas, 78209, USA",29.48517973,-98.47450304
457,764,The Woodlands,"One Lakes Edge Apartments, 1950, Hughes Landing Boulevard, Town Center, The Woodlands, Montgomery County, Texas, 77380, USA",30.17120962,-95.47283668
458,768,Manchaca,"12432, Old San Antonio Road, Ashbrook, Manchaca, Travis County, Texas, 78652, USA",30.12706301,-97.81279920000001
459,772,Temple,"3396, Michaels Drive, Temple, Bell County, Texas, 76502, USA",31.06540948,-97.38577851
460,773,Dallas,"4200, Live Oak Street, Lower Greenville, Dallas, Dallas County, Texas, 75206, USA",32.79693823,-96.77813207
461,775,Corpus Christi,"Quetzal Street, Flour Bluff, Corpus Christi, Nueces County, Texas, 78418, USA",27.67699884,-97.30055446
462,776,Bellaire,"4541, Birch Street, Evergreen Plaza, Bellaire, Harris County, Texas, 77401, USA",29.69644768,-95.45288849
463,781,Highlands,"8977, Meredith, McNair, Harris County, Texas, 77562, USA",29.82841113,-95.00668923
464,782,Lakeway,"120, Lakeway Drive, Lakeway, Travis County, Texas, 78734, USA",30.37242015,-97.98879656
465,783,Arlington,"936, Country Club Lane, Fort Worth, Tarrant County, Texas, 76112, USA",32.76641928,-97.23396261
466,785,Houston,"Fayette C Lowry House, 2009, Harvard Street, North Inner Loop, Houston, Harris County, Texas, 77008, USA",29.80477409,-95.39637284
467,786,Houston,"2395, Bagby Street, Houston, Harris County, Texas, 77006, USA",29.74974567,-95.37812781
468,787,Fort Worth,"3555, Wind River Court, Fort Worth, Tarrant County, Texas, 76116, USA",32.69783897,-97.42717405
469,788,Austin,"2608, North Quinlan Park Road, Marshall Ford, Mesa North, Travis County, Texas, 78732, USA",30.36626244,-97.89504644
470,791,Corpus Christi,"Surfside Boulevard, Downtown, Corpus Christi, Nueces County, Texas, 78402, USA",27.82527207,-97.38596226
471,792,Brownwood,"1071, Fisk Avenue, Brownwood, Brown County, Texas, 76801, USA",31.71454453,-98.9870777
472,793,College Station,"250, Sterling Street, Castle Rock Apartments, College Station, Brazos County, Texas, 77840, USA",30.61484823,-96.31015636
473,794,Houston,"2017, North Memorial Way, North Inner Loop, Houston, Harris County, Texas, 77007, USA",29.76384856,-95.37851923
474,795,Temple,"South General Bruce Drive, Temple, Bell County, Texas, 76502, USA",31.09161482,-97.38203304
475,796,Corpus Christi,"3447, Maui Drive, Flour Bluff, Corpus Christi, Nueces County, Texas, 78418, USA",27.624636199999998,-97.29262553
476,803,Corpus Christi,"Saint Bartholomew Avenue, Mustang-Padre Island, Corpus Christi, Nueces County, Texas, USA",27.61002925,-97.20815302
477,804,San Antonio,"Dent Lane, Bexar County, Texas, 78023, USA",29.58707024,-98.69930141
478,805,Conroe,"Pebble Glen Drive, Camellia, Conroe, Montgomery County, Texas, 77304, USA",30.38058039,-95.5422955
479,807,Buda,"10010, Bock Road, Mustang Ridge, Travis County, Texas, 78610, USA",30.0660656,-97.66690263
480,808,Dallas,"5001, Village Court, Dallas, Dallas County, Texas, 75001:75287, USA",32.9778831,-96.82384374
481,809,Alpine,"621, West Lockhart Avenue, Alpine, Brewster County, Texas, 79830, USA",30.35871939,-103.66820729999999
482,812,Schertz,"1346, Tractor Pass, Kramer Farm Subdivision, Schertz, Guadalupe County, Texas, 78154, USA",29.56449798,-98.27661497
483,813,Houston,"3984, Tolnay Street, Houston, Harris County, Texas, 77021, USA",29.69944281,-95.35728876
484,815,Round Rock,"Joe Dimaggio Boulevard, Round Rock, Williamson County, Texas, 78664, USA",30.52569702,-97.63722293
485,816,Fort Worth,"4100, Angus Drive, Fort Worth, Tarrant County, Texas, 76116, USA",32.7117233,-97.43315017
486,817,Pasadena,"Laurynnbrook Drive, Pasadena, Harris County, Texas, 88581, USA",29.66038134,-95.11979194
487,819,Flower Mound,"Morriss Road, Flower Mound, Denton County, Texas, 75077, USA",33.05281178,-97.06180365
488,820,Houston,"2328, Fletcher Street, Houston, Harris County, Texas, 77009, USA",29.780456400000002,-95.36572794
489,821,Houston,"TownePlace Suites Houston Clear Lake, Bay Area Boulevard, Houston, Harris County, Texas, 77058, USA",29.55535028,-95.11754959
490,822,San Antonio,"1555, West Mistletoe Avenue, Fulton, San Antonio, Bexar County, Texas, 78201, USA",29.4546045,-98.52048726
491,823,Plano,"8237, Bent Tree Springs Drive, Plano, Collin County, Texas, 75025, USA",33.09135012,-96.75956357
492,824,Houston,"13009, Sweetgum Shores Drive, Harmaston, Harris County, Texas, 77044, USA",29.95468009,-95.17607029
493,825,Galveston,"Woody's, 11149, 7 ½ Mile Road, Galveston, Galveston County, Texas, 77554, USA",29.23853045,-94.87843050000001
494,826,Grapevine,"923, West Sunset Street, Grapevine, Tarrant County, Texas, 76051, USA",32.93812109,-97.08482131
495,827,Dallas,"7485, Frankford Road, Dallas, Collin County, Texas, 75252, USA",32.99757673,-96.77626211
496,828,San Antonio,"142, Peter Baque Road, San Antonio, Bexar County, Texas, 78209, USA",29.501524,-98.47037507
497,829,Austin,"1011, Olive Street, Central East Austin, Austin, Travis County, Texas, 78702, USA",30.27069851,-97.72865329
498,830,San Antonio,"Woodcliff Bend, San Antonio, Bexar County, Texas, 78222-1345, USA",29.38983957,-98.36354861
499,831,Leander,"413, Venture Boulevard North, Point Venture, Travis County, Texas, 78734, USA",30.38193087,-97.99596991
500,832,The Woodlands,"31, Waterway Avenue, Town Center, The Woodlands, Montgomery County, Texas, 77380, USA",30.15713045,-95.45927440000001
501,833,Houston,"Neff Early Learning Center, 8200, Carvel Lane, Houston, Harris County, Texas, 77036, USA",29.69803929,-95.52848955
502,834,Crystal Beach,"2225, Trinidad Drive, Crystal Beach, Galveston County, Texas, 77650, USA",29.45857917,-94.61944458
503,835,New Braunfels,"400, North Seguin Avenue, New Braunfels, Comal County, Texas, 78130, USA",29.70575837,-98.12895883
504,836,Georgetown,"Trinity Woods Street, Leander, Williamson County, Texas, TX 78613, USA",30.569901899999998,-97.77553289
505,837,Houston,"Rooms to Go, West Miller Road, Cardiff, Waller County, Texas, USA",29.77335082,-95.90696227
506,838,Sugar Land,"2981, Pepperwood Lane, Sugar Land, Fort Bend County, Texas, 77479, USA",29.58335001,-95.61163082
507,839,McKinney,"2521, County Road 855, Rhea Mills, Collin County, Texas, 75071, USA",33.22490266,-96.72663701
508,840,Crystal Beach,"North Yacht Basin Road, Holiday Shores, Bolivar Beach, Galveston County, Texas, USA",29.43182796,-94.71138349
509,841,Corpus Christi,"14925, Granada Drive, Mustang-Padre Island, Corpus Christi, Nueces County, Texas, 78418, USA",27.60981302,-97.21152459
510,842,Houston,"21753, Rio Villa Drive, Highlands, Harris County, Texas, 77049, USA",29.82638586,-95.0780542
511,843,Stephenville,"Riverwalk Townhomes Community Pool, East Washington Street, Stephenville, Erath County, Texas, 76401, USA",32.22684494,-98.19431712
512,845,Dallas,"Lyndon B Johnson Freeway, Dallas, Dallas County, Texas, 75244, USA",32.92583278,-96.82752597
513,847,Austin,"1198, Angelina Street, Central East Austin, Austin, Travis County, Texas, 78702, USA",30.27234909,-97.72514019
514,850,Humble,"Deerbrook Park Boulevard, Bordersville, Harris County, Texas, 77338, USA",30.01006162,-95.29002864
515,852,Corpus Christi,"Schlitterbahn Waterpark Corpus Christi, 14353, Commodore Street, Mustang-Padre Island, Corpus Christi, Nueces County, Texas, 78418, USA",27.61712015,-97.22687909999999
516,853,Pflugerville,"16312, Aventura Avenue, Pflugerville, Travis County, Texas, 78660, USA",30.44571642,-97.55872891
517,854,Austin,"9403, Claxton Drive, West Oak Hill, Travis County, Texas, 78736, USA",30.24591969,-97.91107312
518,856,Houston,"Roseland Street, Houston, Harris County, Texas, 77006, USA",29.73400202,-95.38966312
519,857,Grand Prairie,"England Parkway, Grand Prairie, Tarrant County, Texas, 76063, USA",32.59294119,-97.03802267
520,859,San Antonio,"6933, Oak Drive, San Antonio, Bexar County, Texas, 78256, USA",29.64065859,-98.62012696
521,862,Kingsland,"Euel Moore Drive, Kingsland, Llano County, Texas, 78639, USA",30.65087253,-98.44034118
522,863,Austin,"2504, Quarry Road, Westfield, Austin, Travis County, Texas, 78703, USA",30.287636300000003,-97.77122285
523,864,Aubrey,"Aubrey, Denton County, Texas, 76227, USA",33.30752135,-96.99290953
524,865,Dallas,"7537, Spring Valley Road, Richardson, Dallas County, Texas, 75240, USA",32.9402624,-96.77448298
525,866,San Antonio,"1115, North Pine Street, Dignowity Hill, San Antonio, Bexar County, Texas, 78202, USA",29.43326424,-98.47054859
526,871,McKinney,"510, West Heard Street, McKinney, Collin County, Texas, 75069, USA",33.20465027,-96.61962981
527,872,McKinney,"8005, Laughin Waters Trail, Craig Ranch North, McKinney, Collin County, Texas, 75070, USA",33.16201868,-96.72106338
528,873,Corpus Christi,"14854, Windward Drive, Mustang-Padre Island, Corpus Christi, Nueces County, Texas, 78418, USA",27.60753607,-97.20797601
529,874,McKinney,"McKinney, Collin County, Texas, 75070, USA",33.17230782,-96.69635921
530,875,Canyon,"Owen Drive, Randall County, Texas, USA",35.02324216,-101.85768320000001
531,876,Mineola,"310, Graham Street, Historic Downtown, Mineola, Wood County, Texas, 75773, USA",32.66437559,-95.48323705
532,879,Abilene,"Neas Road, Abilene, Taylor County, Texas, 79601, USA",32.51080057,-99.71625662
533,883,Houston,"206, Emerson Street, Houston, Harris County, Texas, 77006, USA",29.74151511,-95.38527981
534,885,Pipe Creek,"Cheyenne Trail, Bandera County, Texas, USA",29.73012741,-98.86500696
535,886,Fort Worth,"617, Granite Ridge Drive, Fort Worth, Tarrant County, Texas, 76131, USA",32.83987416,-97.37100911
536,887,College Station,"1134, Neal Pickett Drive, Castle Rock Apartments, College Station, Brazos County, Texas, 77840, USA",30.63310465,-96.31252882
537,888,Temple,"Cross Drive, Temple, Bell County, Texas, 76508, USA",31.03919247,-97.36733881
538,892,Corinth,"4376, Grassy Glen Drive, Corinth, Denton County, Texas, 76208, USA",33.147970199999996,-97.04197578
539,897,Horseshoe Bay,"185, Waters Edge, Horseshoe Bay, Llano County, Texas, 78657, USA",30.55750465,-98.39861941
540,899,Austin,"10901, Short Springs Drive, Pioneer Crossing East, Austin, Travis County, Texas, 78754, USA",30.36204379,-97.64594921
541,909,Fort Worth,"6904, Topanga Terrace, Fort Worth, Tarrant County, Texas, 76132, USA",32.64881241,-97.41376702
542,910,Denton,"505, Retama Street, Denton, Denton County, Texas, 76209, USA",33.25259075,-97.12641517
543,911,Corpus Christi,"1921, South Alameda Street, Corpus Christi, Nueces County, Texas, 78404, USA",27.77175677,-97.40011308
544,913,Plano,"2116, Walnut Square Drive, Plano, Collin County, Texas, 75025, USA",33.07306572,-96.7362375
545,914,Bastrop,"141, Kahalulu Drive, Hills Prairie, Bastrop County, Texas, 78602, USA",30.08259227,-97.27522523
546,915,Travis County,"3404, American Drive, Lago Vista, Travis County, Texas, 78645, USA",30.43933255,-98.02089757
547,916,Dallas,"18383, Gallery Drive, Dallas, Collin County, Texas, 75252, USA",33.00136618,-96.80358957
548,919,Houston,"5298, Cullen Boulevard, Houston, Harris County, Texas, 77021, USA",29.70842038,-95.34848345
549,920,Houston,"3942, West Alabama Street, Lynn Park, Houston, Harris County, Texas, 77027, USA",29.7383408,-95.44423668
550,921,Katy,"Daniel Falls Lane, Waterstone, Harris County, Texas, 77449, USA",29.82154381,-95.76518975
551,922,Bellaire,"5039, Mayfair Street, Bellaire, Harris County, Texas, 77401, USA",29.71882622,-95.46677775
552,923,College Station,"236, Richards Street, Castle Rock Apartments, College Station, Brazos County, Texas, 77840, USA",30.61514289,-96.31107257
553,924,Fort Worth,"701, East Bluff Street, Fort Worth, Tarrant County, Texas, 76102, USA",32.76164455,-97.32868115
554,925,Austin,"15414, Fitzhugh Road, Hays County, Texas, 78620, USA",30.24546515,-98.03263478
555,926,Denton,"2099, Azalea Street, Denton, Denton County, Texas, 76205, USA",33.19184978,-97.15692969
556,927,San Antonio,"13616, Tivoli Gardens, Live Oak, Bexar County, Texas, 78233, USA",29.56867591,-98.34424627
557,928,Bastrop,"157, Redd Road, Riverside Grove, Bastrop, Bastrop County, Texas, 78602, USA",30.12326481,-97.33991202
558,929,College Station,"Summit Crossing, College Station, Brazos County, Texas, 77802, USA",30.656294300000003,-96.2917982
559,930,Dallas,"9210, Arbor Branch Drive, Lake Highlands, Dallas, Dallas County, Texas, 75243, USA",32.90120248,-96.74327771
560,931,League City,"2969, Doral Court, League City, Galveston County, Texas, 77573, USA",29.53021426,-95.0580968
561,932,Dallas,"7421, Frankford Road, Dallas, Collin County, Texas, 75252, USA",33.00203287,-96.77815395
562,933,Houston,"54, Windermere Lane, Piney Point Village, Harris County, Texas, 77063, USA",29.74262787,-95.52026131
563,934,Lantana,"McMakin Road, Lantana, Denton County, Texas, 76226, USA",33.09893706,-97.13091462
564,935,The Woodlands,"Six Pines Drive, Avana Six Pines Apartments, Town Center, The Woodlands, Montgomery County, Texas, 77380, USA",30.157956800000004,-95.46179071
565,936,San Saba,"US 190, Red Bluff Crossing, Lampasas County, Texas, USA",31.21818442,-98.56366909
566,938,Dallas,"2402, Loving Avenue, Dallas, Dallas County, Texas, 75214, USA",32.81487903,-96.73342186
567,939,Fort Worth,"3758, West 7th Street, Fort Worth, Tarrant County, Texas, 76107, USA",32.75158811,-97.37301834
568,940,Seabrook,"Outrigger's, 101, Bath Avenue, Seabrook, Harris County, Texas, 77586, USA",29.55009918,-95.02379758
569,941,Alpine,"305, West Holland Avenue, Alpine, Brewster County, Texas, 79830, USA",30.35695707,-103.664181
570,942,Tool,"599, Yawl Drive, Tool, Henderson County, Texas, 75143, USA",32.27741643,-96.15883856
571,943,Houston,"Walmart, 9555, South Post Oak Road, Houston, Harris County, Texas, 77096, USA",29.67697703,-95.4569642
572,944,Rockport,"758, Copano Cove Road, Aransas County, Texas, 78382, USA",28.06993197,-97.10975582
573,945,Houston,"3941, Dunlavy Street, Houston, Harris County, Texas, 77006, USA",29.73742477,-95.40170108
574,946,Carrollton,"Vaquero Lane, Mustang Park, Carrollton, Denton County, Texas, 75187, USA",33.03489229,-96.86525795
575,947,San Antonio,"289, Sadie Street, Lavaca, San Antonio, Bexar County, Texas, 78210, USA",29.41042577,-98.48564143
576,949,Abilene,"2135, South 9th Street, Abilene, Taylor County, Texas, 79605, USA",32.4393506,-99.74852403
577,950,Houston,"2216, Lamar Street, Houston, Harris County, Texas, 77003, USA",29.74980197,-95.35505056
578,951,Bolivar Peninsula,"2491, Sand Bar Lane, Crystal Beach, Galveston County, Texas, 77650, USA",29.46415226,-94.61500683
579,954,Fort Worth,"3800, Dawn Drive, Benbrook, Tarrant County, Texas, 76116, USA",32.714567200000005,-97.46577684
580,956,Dallas,"1344, Stewart Drive, Bishop Arts District, Dallas, Dallas County, Texas, 75208, USA",32.75532904,-96.84328076
581,958,Amarillo,"West Hills Park, Route 66 Historic District, Amarillo, Potter County, Texas, USA",35.22030984,-101.8893288
582,959,Bolivar Peninsula,"Sand Trout, Crystal Beach, Galveston County, Texas, 77650, USA",29.46517493,-94.61656459
583,960,Dallas,"North Central Expressway, Dallas, Dallas County, Texas, 75231, USA",32.89398314,-96.76928527
584,961,Dallas,"18331, Roehampton Drive, Dallas, Collin County, Texas, 75252, USA",33.00043976,-96.8025189
585,962,South Padre Island,"Padre Boulevard, South Padre Island, Cameron County, Texas, 78597, USA",26.08722496,-97.1625654
586,963,Lumberton,"10367, Cooks Lake Road, Loeb, Hardin County, Texas, 77657, USA",30.18677211,-94.16080814
587,964,Crystal Beach,"918, South Stingaree Drive, Bolivar Peninsula, Galveston County, Texas, 77650, USA",29.47086832,-94.59251148
588,965,New Braunfels,"15298, Meusebach Street, New Braunfels, Comal County, Texas, 78130, USA",29.70752693,-98.12685515
589,967,Houston,"AMLI 2121, West McKinney Drive, Houston, Harris County, Texas, 77019, USA",29.75904034,-95.39083689
590,969,McKinney,"Community Avenue, McKinney, Collin County, Texas, 75071, USA",33.22590649,-96.64087478
591,970,Canyon,"Owen Drive, Randall County, Texas, USA",35.02516881,-101.8543631
592,972,Alpine,"Centennial High School, West Avenue H, Alpine, Brewster County, Texas, 79830, USA",30.35335594,-103.6634845
593,974,Spring,"2139, Wickburn Drive, Rayford, Montgomery County, Texas, 77386, USA",30.13038027,-95.40828467
594,975,Smithville,"401, Vyvjala Road, Togo, Bastrop County, Texas, 78957, USA",29.93921616,-97.19376916
595,976,Boerne,"Spanish Pass Road, Nelson City, Kendall County, Texas, USA",29.865013899999997,-98.76931789
596,977,Early,"1802, Early Boulevard, Early, Brown County, Texas, 76802, USA",31.75531249,-98.91273215
597,978,Horseshoe Bay,"691, Rocky Road, Marble Falls, Burnet County, Texas, 78657, USA",30.55079537,-98.28505077
598,979,San Antonio,"5628, Edie Adams Drive, San Antonio, Bexar County, Texas, 78240, USA",29.50082449,-98.59626329
599,981,Arlington,"164, Bryan Drive, Arlington, Tarrant County, Texas, 76011, USA",32.75428405,-97.10692998
600,982,Dallas,"9520, Hathaway Street, Dallas, Dallas County, Texas, 75220, USA",32.87359616,-96.81113384
601,983,Corpus Christi,"Surfside Sandwich Shoppe, 15113, South Padre Island Drive, Mustang-Padre Island, Corpus Christi, Nueces County, Texas, 78418, USA",27.6062592,-97.22321922
602,984,Plano,"3306, Bonniebrook Drive, Woodburn Estates, Plano, Collin County, Texas, 75075, USA",33.01769518,-96.75652290000001
603,985,Point Venture,"18506, Lakehead Circle, Point Venture, Travis County, Texas, 78645, USA",30.38102721,-97.9974863
604,986,Austin,"8401, Cockney Drive, Buckingham Estates, Austin, Travis County, Texas, 78748, USA",30.18293916,-97.80146896
605,987,Denton,"Linden Drive, Denton, Denton County, Texas, 76201, USA",33.22370399,-97.15519379999999
606,988,Manor,"11900, Briarcreek Loop, Briarcreek, New Katy, Travis County, Texas, 78653, USA",30.31864462,-97.53576258
607,989,Universal City,"8676, Park Olympia, Universal City, Bexar County, Texas, 78148, USA",29.559226199999998,-98.31159311
608,990,Austin,"6064, Randleman Drive, Berdoll Farms, Austin, Travis County, Texas, 78617, USA",30.16857353,-97.61259908
609,993,Katy,"3560, Paintbrush Dawn Court, Harris County, Texas, 77493, USA",29.82300157,-95.77779321
610,994,New Ulm,"1820, Track Road, New Ulm, Austin County, Texas, 78950, USA",29.89608649,-96.50383154
611,995,Benbrook,"2904, Rivergrove Court, Riverfork Way, Fort Worth, Tarrant County, Texas, 76116, USA",32.70586073,-97.41937586
612,996,Pflugerville,"Ruby Lace Road, Pflugerville, Travis County, Texas, 78660, USA",30.45307874,-97.58887996
613,997,Kemah,"340, Marina Oaks Court, League City, Galveston County, Texas, 77565, USA",29.54836928,-95.05559641
614,999,Austin,"1010, Weeping Willow Drive, Heritage Hills, Austin, Travis County, Texas, 78753, USA",30.34662521,-97.68895938
615,1000,Houston,"U-Haul Center, Pease Street, Houston, Harris County, Texas, 77003, USA",29.75055256,-95.3670027
616,1001,Austin,"Brush Square, 409, East 5th Street, Dirty Sixth, Austin, Travis County, Texas, 78701, USA",30.26571108,-97.73970572
617,1002,Spicewood,"Flying J Boulevard, Travis County, Texas, 78645, USA",30.40700626,-97.99409103
618,1003,Fort Worth,"2121, Mistletoe Avenue, Fort Worth, Tarrant County, Texas, 76110, USA",32.72877639,-97.34972928
619,1004,Belton,"7273, Woodlake Circle, Westcliff, Bell County, Texas, 76513, USA",31.11789479,-97.52638716
620,1005,Fort Worth,"International Leadership of Texas, Boca Raton Boulevard, Fort Worth, Tarrant County, Texas, 76112, USA",32.76796115,-97.22877591
621,1006,Temple,"734, Arrangement Way, Temple, Bell County, Texas, 76504, USA",31.07457811,-97.35822541
622,1008,Houston,"Post Oak Boulevard, Highland Village, Houston, Harris County, Texas, 77027, USA",29.73472042,-95.46027121
623,1009,Galveston,"606, 17th Street, Galveston, Galveston County, Texas, 77550, USA",29.30531714,-94.78616527
624,1012,Grapevine,"1432, South Main Street, Grapevine, Tarrant County, Texas, 76051, USA",32.92610196,-97.07872744
625,1013,League City,"Signature Cove, The Peninsula at Clear Lake, League City, Galveston County, Texas, 77058, USA",29.53916485,-95.07861222
626,1016,San Antonio,"314, Claremont Avenue, Government Hill, San Antonio, Bexar County, Texas, 78209, USA",29.456436699999998,-98.46312918
627,1020,Allen,"1518, Pine Bluff Drive, Allen, Collin County, Texas, 75002, USA",33.09131167,-96.6306321
628,1021,Houston,"4717, Emancipation Avenue, Houston, Harris County, Texas, 77004, USA",29.72482108,-95.372522
629,1023,Baytown,"45, Park Street, Baytown, Harris County, Texas, 77520, USA",29.74629616,-94.96434138
630,1027,Houston,"19317, Rio Villa Drive, Highlands, Harris County, Texas, 77049, USA",29.82935223,-95.08154949
631,1028,Navasota,"West Farquhar Street, Navasota, Grimes County, Texas, 77868, USA",30.38324297,-96.08592241
632,1031,Dallas,"4616, Capitol Avenue, Lower Greenville, Dallas, Dallas County, Texas, 75204:75206, USA",32.80917513,-96.78449554
633,1032,Marble Falls,"127, Palmie Lane, Marble Falls, Burnet County, Texas, 78657, USA",30.55231695,-98.2848241
634,1034,Houston,"356, Bremond Street, Houston, Harris County, Texas, 77006, USA",29.74920014,-95.37922124
635,1035,Kyle,"117, Briarwood Court, Springbranch, Kyle, Hays County, Texas, 78640, USA",30.00110692,-97.87627903
636,1036,Irving,"9000, Crown Point Circle, Valley Ranch, Irving, Dallas County, Texas, 75063, USA",32.93055549,-96.94416504
637,1037,Bastrop,"Earhardt Road, Goodman, Bastrop County, Texas, 78602, USA",30.15061016,-97.38697159
638,1039,Rockport,"2296, North Fulton Beach Road, Fulton, Aransas County, Texas, 78382, USA",28.10288178,-97.02638104
639,1041,Crystal Beach,"941, Fisherman Drive South, Bolivar Peninsula, Galveston County, Texas, 77650, USA",29.47211274,-94.59357117
640,1043,Allen,"South Allen Heights Drive, Allen, Collin County, Texas, 75002, USA",33.09554669,-96.64233975
641,1044,Houston,"Columbia Tap Rail Trail, Houston, Harris County, Texas, 77004, USA",29.74502431,-95.34668795
642,1047,Corpus Christi,"Boat House, Windward Drive, Mustang-Padre Island, Corpus Christi, Nueces County, Texas, USA",27.60321317,-97.21429844
643,1048,San Antonio,"Mark Twain Middle School, Breeden Street, Alta Vista, San Antonio, Bexar County, Texas, 78212, USA",29.45610464,-98.50124789
644,1050,Corpus Christi,"15029, Aruba Drive, Mustang-Padre Island, Corpus Christi, Nueces County, Texas, 78418, USA",27.60519623,-97.21322090000001
645,1051,Kemah,"214, Lago Vista, Casa Marina del Sol, League City, Galveston County, Texas, 77565, USA",29.55160845,-95.05579792
646,1052,Houston,"3856, Linkwood Drive, Linkwood, Houston, Harris County, Texas, 77025, USA",29.68773648,-95.43844049
647,1053,Austin,"1412, Harvey Street, Rosewood, Austin, Travis County, Texas, 78702, USA",30.27893453,-97.7052902
648,1054,Horseshoe Bay,"Lighthouse Drive, Horseshoe Bay, Llano County, Texas, 78657, USA",30.56076864,-98.35913084
649,1055,Plano,"678, East 16th Street, Plano, Collin County, Texas, 75074, USA",33.02126264,-96.70710179999999
650,1057,Seabrook,"4464, Spoonbill Drive, Seabrook, Harris County, Texas, 77586, USA",29.58307462,-95.01420299
651,1058,San Antonio,"351, Devonshire Drive, San Antonio, Bexar County, Texas, 78209, USA",29.49350536,-98.44639227
652,1059,Bryan,"726, Garden Acres Boulevard, Bryan, Brazos County, Texas, 77802, USA",30.63907265,-96.34111106
653,1060,Dallas,"El Rancho, Haymeadow Drive, Richardson, Dallas County, Texas, 75240, USA",32.94314024,-96.77068634
654,1061,Fort Worth,"3136, West 4th Street, Fort Worth, Tarrant County, Texas, 76107, USA",32.7541609,-97.36275355
655,1062,Houston,"2144, El Paseo Street, Houston, Harris County, Texas, 77054, USA",29.6882863,-95.39359498
656,1063,College Station,"2547, Raintree Drive, Raintree, College Station, Brazos County, Texas, 77845, USA",30.62234881,-96.29075489
657,1064,Houston,"477, Dennis Street, Houston, Harris County, Texas, 77006, USA",29.74764857,-95.37905164
658,1065,Dallas,"801, Pavillion Street, Dallas, Dallas County, Texas, 75204, USA",32.79248743,-96.78808215
659,1066,Houston,"2530, Morgan Street, Houston, Harris County, Texas, 77006, USA",29.74723666,-95.38666453
660,1067,Quitman,"635, Lloyd Avenue, Quitman, Wood County, Texas, 75783, USA",32.79946774,-95.44443096
661,1068,Austin,"2312, San Gabriel Street, West Campus, Austin, Travis County, Texas, 78705, USA",30.28763991,-97.74840561
662,1069,Austin,"15903, Allenwood Drive, Hudson Bend, Travis County, Texas, 78734, USA",30.41977301,-97.9239732
663,1070,Fort Worth,"4632, El Campo Avenue, Fort Worth, Tarrant County, Texas, 76107, USA",32.73715191,-97.38912380000001
664,1071,San Antonio,"West Terra Alta Road, Oak Park, San Antonio, Bexar County, Texas, 78209, USA",29.50524068,-98.4722952
665,1072,Fort Worth,"3405, Hamilton Avenue, Fort Worth, Tarrant County, Texas, 76107, USA",32.75447927,-97.36697788
666,1073,Rockport,"102, South 2nd Street, Fulton, Aransas County, Texas, 78358, USA",28.0609396,-97.03499452
667,1074,Fort Worth,"1613, Clover Lane, Fort Worth, Tarrant County, Texas, 76107, USA",32.74359515,-97.37833946
668,1075,San Antonio,"11628, Persuasion Drive, San Antonio, Bexar County, Texas, 78216, USA",29.54835095,-98.50587708
669,1076,League City,"1523, Viejo Road, League City, Galveston County, Texas, 77573, USA",29.48121733,-95.09219016
670,1077,Dallas,"15905, Bent Tree Forest Drive, Dallas, Dallas County, Texas, 75248, USA",32.9644273,-96.81434857
671,1078,Pontotoc,"County Road 373, San Saba County, Texas, USA",30.96121831,-99.00986225
672,1079,Arlington,"2614, Keystone Drive, Arlington, Tarrant County, Texas, 76006, USA",32.77946632,-97.10861574
673,1080,Houston,"El Cid Trail, Highlands, Harris County, Texas, 77562, USA",29.82785803,-95.0814124
674,1082,Aledo,"1243, Redbud Court, Annetta, Parker County, Texas, 76008, USA",32.70106068,-97.66979945
675,1083,Bellaire,"1203, Anderson Street, Bellaire, Harris County, Texas, 77081, USA",29.72099862,-95.46385156
676,1084,Brownsville,"Fort Brown Resaca, Ringgold Road, Brownsville, Cameron County, Texas, 78520:78521, USA",25.89491768,-97.49385881
677,1085,Canyon Lake,"1398, Parkview Drive, Canyon City, Comal County, Texas, 78133, USA",29.90045347,-98.21471388
678,1086,Corpus Christi,"Corpus Christi North Beach, Corpus Christi Beach Walk, Peoples Street T-Head, Downtown, Corpus Christi, Nueces County, Texas, 78402, USA",27.82656313,-97.38451275
679,1088,Arlington,"2643, Westgate Drive, Arlington, Tarrant County, Texas, 76015, USA",32.70239886,-97.14091661
680,1089,Krum,"6590, Spring Hill Lane, Denton, Denton County, Texas, 76249, USA",33.23350665,-97.24547763
681,1091,Dallas,"733, Texas Street, Deep Ellum PID, Dallas, Dallas County, Texas, 75204, USA",32.78930842,-96.78914904
682,1092,Kemah,"75, Mariners, League City, Galveston County, Texas, 77565, USA",29.54869422,-95.04235245
683,1093,Houston,"2300, McCue Road, Highland Village, Houston, Harris County, Texas, 77056, USA",29.744808199999998,-95.4646019
684,1098,Rockport,"1104, Weeping Willow, Shell Ridge, Aransas County, Texas, 78382, USA",28.00745815,-97.10623385
685,1099,Corpus Christi,"14701, Whitecap Boulevard, Mustang-Padre Island, Corpus Christi, Nueces County, Texas, 78418, USA",27.60068802,-97.21604127
686,1102,Houston,"1905, Milford Street, Houston, Harris County, Texas, 77098, USA",29.72860861,-95.40574755
687,1103,Mineola,"1998, Farm-to-Market Road 1801, New Hope, Wood County, Texas, 75773, USA",32.66211098,-95.45634561
688,1106,McKinney,"3498, Bois D'Arc Road, McKinney, Collin County, Texas, 75071, USA",33.20562971,-96.65832849
689,1108,Alpine,"902, Cottonwood Creek Road, Brewster County, Texas, 79830, USA",30.27879022,-103.57451359999999
690,1110,Aransas Pass,"2531, Williams Road, Ingleside, San Patricio County, Texas, 78336, USA",27.90218606,-97.1923957
691,1112,San Antonio,"399, Old Guilbeau Street, Arsenal, San Antonio, Bexar County, Texas, 78204, USA",29.41934304,-98.49288723
692,1113,Justin,"1871, Foxfield Way, Fort Worth, Denton County, Texas, 76247, USA",33.045794300000004,-97.31901012
693,1114,San Antonio,"386, Thorman Place, San Antonio, Bexar County, Texas, 78209, USA",29.46282629,-98.46129587
694,1115,Amarillo,"Rock Island Rail Trail, Route 66 Historic District, Amarillo, Potter County, Texas, 79116, USA",35.20140792,-101.88025970000001
695,1116,Dallas,"9001, Markville Drive, Lake Highlands, Dallas, Dallas County, Texas, 75243, USA",32.91502328,-96.74825865
696,1117,McKinney,"2433, Woodlawn Road, McKinney, Collin County, Texas, 75071, USA",33.22024732,-96.59980986
697,1118,Port Aransas,"State Highway 361, Port Aransas, Aransas County, Texas, 78373, USA",27.72186052,-97.13891526
698,1119,Houston,"City Place Apartments, 306, McGowen Street, Houston, Harris County, Texas, 77006, USA",29.74877755,-95.37944163
699,1120,Plano,"Ridgeview Ranch Golf Club, Plano, Collin County, Texas, USA",33.11545723,-96.74681491
700,1122,San Antonio,"243, Belfast Drive, San Antonio, Bexar County, Texas, 78209, USA",29.51038283,-98.47190635
701,1124,McKinney,"Enclave Court, McKinney, Collin County, Texas, 75070, USA",33.1952115,-96.68156970000001
702,1125,Canyon,"265, 20th Street, Canyon, Randall County, Texas, 79015, USA",34.98154452,-101.922464
703,1127,San Antonio,"8, Bluet Lane, Castle Hills, Bexar County, Texas, 78213, USA",29.51251385,-98.51791542
704,1128,San Antonio,"1564, West Lynwood Avenue, Keystone Park, San Antonio, Bexar County, Texas, 78201, USA",29.46318197,-98.52242019
705,1129,McKinney,"5035, Bryn Mawr Drive, McKinney, Collin County, Texas, 75070, USA",33.19321398,-96.68441712
706,1130,Amarillo,"Amarillo, Potter County, Texas, 79108, USA",35.25629909,-101.8504459
707,1131,Canyon,"US 87, Canyon, Randall County, Texas, 79016, USA",34.9384357,-101.9173552
708,1132,San Antonio,"259, Belfast Drive, San Antonio, Bexar County, Texas, 78209, USA",29.51034832,-98.47165536
709,1134,Weatherford,"314, Willow Creek Drive, Weatherford, Parker County, Texas, 76085, USA",32.76088574,-97.75059652
710,1135,Lago Vista,"3204, Parliament Cove, Lago Vista, Travis County, Texas, 78645, USA",30.43882777,-98.02162829999999
711,1136,Irving,"3898, Great Falls Court, Irving, Dallas County, Texas, 75062, USA",32.84988937,-97.00251085
712,1137,Houston,"Wharton Elementary School, Columbus Street, Houston, Harris County, Texas, 77019, USA",29.75363112,-95.39079165
713,1138,Denton,"2799, Winchester Court, Denton, Denton County, Texas, 76209, USA",33.24064885,-97.12376929
714,1139,Austin,"1403, Perez Street, MLK, Austin, Travis County, Texas, 78721, USA",30.28045086,-97.69178736
715,1140,Austin,"12121, Fitzhugh Road, Travis County, Texas, 78737, USA",30.23277722,-97.9801536
716,1141,Houston,"Kirby Drive, Houston, Harris County, Texas, 77025-9998, USA",29.69311673,-95.41336383
717,1142,Katy,"25111, Braleybrook Court, Heritage Grand, Cinco Ranch, Fort Bend County, Texas, 77494, USA",29.72455004,-95.78437896
718,1143,Bolivar Peninsula,"900, South Stingaree Drive, Bolivar Peninsula, Galveston County, Texas, 77650, USA",29.47000927,-94.59194659
719,1144,Marble Falls,"County Road 342C, Mormon Mill, Burnet County, Texas, 78654, USA",30.58923449,-98.23450359
720,1146,Corpus Christi,"Surfside Boulevard, Downtown, Corpus Christi, Nueces County, Texas, 78402, USA",27.82461949,-97.38645717
721,1147,Fort Worth,"1509, Washington Avenue, Fairmount, Fort Worth, Tarrant County, Texas, 76104, USA",32.72783749,-97.33563415
722,1149,Houston,"James A Dawson House, 400, Emerson Street, Houston, Harris County, Texas, 77006, USA",29.74160414,-95.38333188
723,1150,Sargent,"Seagull Road, Matagorda County, Texas, 77414, USA",28.77783566,-95.63957549
724,1154,San Antonio,"2231, Sacramento, Monticello Park, San Antonio, Bexar County, Texas, 78201, USA",29.47204771,-98.53037078
725,1155,San Leon,"1696, Railroad Street, Texas City, Galveston County, Texas, 77539, USA",29.47483943,-94.95237209999999
726,1156,Irving,"1098, Compton Avenue, Irving, Dallas County, Texas, 75061, USA",32.8251835,-97.00448705
727,1157,San Antonio,"1903, North Saint Mary's Street, Saint Mary's Strip, San Antonio, Bexar County, Texas, 78212, USA",29.44221522,-98.48604383
728,1162,Dallas,"4320, Concho Street, The Village, Dallas, Dallas County, Texas, 75206, USA",32.83888045,-96.76429124
729,1163,Houston,"1698, Holman Street, Houston, Harris County, Texas, 77004, USA",29.73607529,-95.37238536
730,1164,Houston,"The New Potato, 6519, Clinton Drive, Houston, Harris County, Texas, 77020, USA",29.76470746,-95.33419930000001
731,1165,Abilene,"1181, Santos Street, Abilene, Taylor County, Texas, 79605, USA",32.4361402,-99.74995418
732,1169,Euless,"Euless, Tarrant County, Texas, 76039, USA",32.83637391,-97.0764018
733,1171,Houston,"1540, Fairview Street, Houston, Harris County, Texas, 77006, USA",29.74727818,-95.39715381
734,1173,Killeen,"East Elms Road, Killeen, Bell County, Texas, 76542, USA",31.07575219,-97.71957835
735,1174,Houston,"7124, Chetwood Drive, Houston, Harris County, Texas, 77081, USA",29.70289588,-95.47861187
736,1175,Austin,"304, East 44th Street, Hyde Park, Austin, Travis County, Texas, 78751, USA",30.30676463,-97.72635408
737,1176,Denton,"817, Panhandle Street, Denton, Denton County, Texas, 76201, USA",33.22108624,-97.14102656
738,1177,Corpus Christi,"H-E-B Fuel, South Alameda Street, Corpus Christi, Nueces County, Texas, 78404, USA",27.758073600000003,-97.39120243
739,1178,Houston,"4694, Wild Indigo, Houston, Harris County, Texas, 77027, USA",29.72749877,-95.45436483
740,1181,Richmond,"7009, Kendall Lake Court, Lakemont Court, Cinco Ranch, Fort Bend County, Texas, 77407, USA",29.70156635,-95.73074746
741,1182,Allen,"1486, Boyle Parkway, Cumberland Crossing, Allen, Collin County, Texas, 75013, USA",33.12113416,-96.70758513
742,1184,Dallas,"11366, Rupley Lane, Dallas, Dallas County, Texas, 75218, USA",32.85467373,-96.68454368
743,1187,Grapevine,"4511, Baze Road, Euless, Tarrant County, Texas, 76051, USA",32.88717672,-97.09082315
744,1188,Corpus Christi,"15647, Finistere Street, Mustang-Padre Island, Corpus Christi, Nueces County, Texas, 78418, USA",27.59174035,-97.22976267
745,1189,Fort Worth,"1501, West Morphy Street, Fairmount, Fort Worth, Tarrant County, Texas, 76104, USA",32.72935084,-97.34142554
746,1190,Corpus Christi,"Surfside Sandwich Shoppe, 15113, South Padre Island Drive, Mustang-Padre Island, Corpus Christi, Nueces County, Texas, 78418, USA",27.606393599999997,-97.2233771
747,1191,Galveston,"1659, Church Street - Avenue F, Galveston, Galveston County, Texas, 77550, USA",29.305438300000002,-94.78580744
748,1192,Dallas,"Trader Joe's, 5550, West Lovers Lane, Dallas, Dallas County, Texas, 75209, USA",32.8512312,-96.81869472
749,1193,Belton,"1058, Terra Alta Drive, Belton, Bell County, Texas, 76513, USA",31.09024408,-97.4726545
750,1194,San Antonio,"1657, West Magnolia Avenue, Fulton, San Antonio, Bexar County, Texas, 78201, USA",29.456313199999997,-98.52255942
751,1195,Port Aransas,"737, Parkplace, Mustang Beach, Port Aransas, Aransas County, Texas, 78373, USA",27.80675811,-97.07838677
752,1196,Dallas,"CVS, 13033, Coit Road, Dallas, Dallas County, Texas, 75240, USA",32.92684218,-96.77006972
753,1197,San Antonio,"Bowden Elementary School, Lamar Street, Dignowity Hill, San Antonio, Bexar County, Texas, 78202, USA",29.43130677,-98.47000162
754,1198,Lindale,"18907, Van Highway, Garden Valley, Smith County, Texas, 75771, USA",32.52493661,-95.57095437
755,1199,San Antonio,"Road 31, Government Hill, San Antonio, Bexar County, Texas, 78208, USA",29.44356005,-98.46739246
756,1200,Plano,"Plano, Collin County, Texas, 75093, USA",33.05491545,-96.78783683
757,1201,Houston,"Helena Street, Houston, Harris County, Texas, 77006, USA",29.75109624,-95.38023945
758,1202,San Antonio,"Amazing Air, 7702, I-35 Frontage Road, San Antonio, Bexar County, Texas, 78218, USA",29.5046094,-98.39613328
759,1203,San Antonio,"3031, Eisenhauer Road, Oak Park, San Antonio, Bexar County, Texas, 78209, USA",29.49586081,-98.44117079
760,1204,Houston,"4523, Walker Street, Houston, Harris County, Texas, 77023, USA",29.74156862,-95.33167579999999
761,1205,Weatherford,"314, Willow Creek Drive, Weatherford, Parker County, Texas, 76085, USA",32.76088574,-97.75059652
762,1206,McKinney,"720, Park View Avenue, McKinney, Collin County, Texas, 75070, USA",33.19243407,-96.6424648
763,1207,Plano,"3213, Clymer Drive, Plano, Collin County, Texas, 75025, USA",33.07591135,-96.75335238
764,1208,Houston,"9319, Kristin Drive, Houston, Harris County, Texas, 77031, USA",29.66505293,-95.54134548
765,1209,Highland Village,"149, Greensprings Street, Montclair I, Highland Village, Denton County, Texas, 75077, USA",33.08821666,-97.03655189
766,1210,Arlington,"6490, Saint Alban Court, Arlington, Tarrant County, Texas, 76001, USA",32.63978624,-97.12971167
767,1211,Corpus Christi,"520, Monette Drive, Bay Area, Corpus Christi, Nueces County, Texas, 78412, USA",27.72571657,-97.36533677
768,1212,San Antonio,"Missionaries of Sacred Heart, West Magnolia Avenue, Alta Vista, San Antonio, Bexar County, Texas, 78201, USA",29.45458099,-98.49647362
769,1213,San Antonio,"McAllister Freeway, Saint Mary's Strip, San Antonio, Bexar County, Texas, 78215, USA",29.44805755,-98.48326453
770,1214,San Antonio,"465, Lamar Street, Dignowity Hill, San Antonio, Bexar County, Texas, 78202, USA",29.43164427,-98.47380777
771,1216,Dallas,"626, North Montclair Avenue, Bishop Arts District, Dallas, Dallas County, Texas, 75208, USA",32.75053738,-96.84639693
772,1221,Killeen,"East Elms Road, Killeen, Bell County, Texas, 76542, USA",31.07609483,-97.72092009999999
773,1222,Corpus Christi,"14825, Leeward Drive, Mustang-Padre Island, Corpus Christi, Nueces County, Texas, 78418, USA",27.60760188,-97.21035405
774,1223,Corpus Christi,"Mustang-Padre Island, Corpus Christi, Nueces County, Texas, 78418, USA",27.62759892,-97.23367609
775,1224,Austin,"1117, Hollow Creek Drive, Zilker, Austin, Travis County, Texas, 78704, USA",30.26070211,-97.77194317
776,1225,Fort Worth,"3817, Byers Avenue, Fort Worth, Tarrant County, Texas, 76107, USA",32.73868159,-97.37386375
777,1226,Dallas,"1808, Ocalla Avenue, Dallas, Dallas County, Texas, 75218, USA",32.82077889,-96.70257057
778,1227,River Oaks,"1315, Banks Street, River Oaks, Tarrant County, Texas, 76114, USA",32.78062233,-97.38818431
779,1228,Bastrop,"112, El Camino Real River Road, Bastrop, Bastrop County, Texas, 78602, USA",30.08161842,-97.33094901
780,1229,Houston,"Lakeside Terrace Drive, Houston, Harris County, Texas, 77044, USA",29.92031126,-95.15585311
781,1230,Bandera,"Schmidtke Road, Highland Waters, Bandera County, Texas, 78803, USA",29.71451723,-99.11706012
782,1231,Dallas,"700, Colten James Lane, Dallas, Dallas County, Texas, 75204, USA",32.79140309,-96.78826755
783,1232,Austin,"Sabina Apartments, 3400, Harmon Avenue, Hancock, Austin, Travis County, Texas, 78705, USA",30.29331524,-97.7231532
784,1233,Port Aransas,"North Station Street, Port Aransas, Aransas County, Texas, 78373, USA",27.832290500000003,-97.06054091
785,1234,Van,"Van, Van Zandt County, Texas, 75790, USA",32.49949089,-95.6144294
786,1235,Bastrop,"398, Wahane Lane, Bastrop, Bastrop County, Texas, 78602, USA",30.08375912,-97.29761001
787,1238,Corpus Christi,"15082, Leeward Drive, Mustang-Padre Island, Corpus Christi, Nueces County, Texas, 78418, USA",27.606663399999995,-97.21051752
788,1239,Galveston,"Diamond Beach, 10327, San Luis Pass Road, Palm Beach, Galveston, Galveston County, Texas, 77554, USA",29.24230157,-94.86834662
789,1240,Kemah,"1372, Bel Road, Kemah, Galveston County, Texas, 77565, USA",29.53590863,-95.01240038
790,1241,Corpus Christi,"Corpus Christi Fire Department Station 15, Commodore Street, Mustang-Padre Island, Corpus Christi, Nueces County, Texas, USA",27.61887044,-97.22611706
791,1242,Corpus Christi,"14705, Whitecap Boulevard, Mustang-Padre Island, Corpus Christi, Nueces County, Texas, 78418, USA",27.60149949,-97.21614609999999
792,1243,Dallas,"4602, Junius Street, Lower Greenville, Dallas, Dallas County, Texas, 75214, USA",32.79639357,-96.77176902
793,1244,Corpus Christi,"Burleson Street, Downtown, Corpus Christi, Nueces County, Texas, 78402, USA",27.82757707,-97.40070317
794,1245,Euless,"Adam Samuels Direct, West Airport Freeway, Bedford, Tarrant County, Texas, 76040, USA",32.83663091,-97.10935141
795,1246,Canton,"Old Mill Marketplace, East Dallas Street, Canton, Van Zandt County, Texas, 75103, USA",32.55629946,-95.85220639
796,1247,Copperas Cove,"1548, Virginia Avenue, Copperas Cove, Coryell County, Texas, 76522, USA",31.11088698,-97.88305935
797,1248,San Antonio,"12215, Apricot Drive, San Antonio, Bexar County, Texas, 78247, USA",29.55489961,-98.45988098
798,1249,Rockport,"Broadway Street, Key Allegro, Rockport, Aransas County, Texas, 78382, USA",28.04059527,-97.03706996
799,1250,Deer Park,"Dylan Lane, Deer Park, Harris County, Texas, 88581, USA",29.67460194,-95.10390299
800,1251,Galveston,"Sweeney-Royston House, Avenue L, Galveston, Galveston County, Texas, 77551, USA",29.29825142,-94.79200809
801,1252,Fulshear,"Pool Hill Road, Simonton, Fort Bend County, Texas, 77476, USA",29.69959646,-95.94543165
802,1253,Sweeny,"7298, FM 1459, Sweeny, Brazoria County, Texas, 77480, USA",29.09496748,-95.68977377
803,1254,Houston,"Rice School, 7550, Seuss Drive, Houston, Harris County, Texas, 77025, USA",29.69917845,-95.41905729
804,1256,Bacliff,"4757, Rose Street, Clifton Beach, Galveston County, Texas, 77518, USA",29.50949455,-94.97572785
805,1257,Celina,"272, North Ohio Street, Celina, Collin County, Texas, 75009, USA",33.32529396,-96.78629119
806,1258,Houston,"1065, East 7½ Street, North Inner Loop, Houston, Harris County, Texas, 77009, USA",29.78454621,-95.38534717
807,1259,Dallas,"9250, Garland Road, Dallas, Dallas County, Texas, 75218, USA",32.830533100000004,-96.70610111
808,1260,Katy,"Gaston Road, Avalon at Seven Meadows, Seven Meadows, Cinco Ranch, Fort Bend County, Texas, 77494, USA",29.70119015,-95.78441532
809,1261,League City,"2520, Lexington Court, Brittany Lakes, League City, Galveston County, Texas, 77573, USA",29.48316219,-95.12608659
810,1262,Houston,"1381, Palm Street, Houston, Harris County, Texas, 77004, USA",29.72720237,-95.38373351
811,1263,Galveston,"4149, Avenue R ½, Galveston, Galveston County, Texas, 77550, USA",29.28208433,-94.80897511
812,1265,Bandera,"Bandera Wash Tub, 710, Main Street, Bandera, Bandera County, Texas, 78003, USA",29.72808384,-99.07478835
813,1267,Dallas,"5948, Oram Street, Lower Greenville, Dallas, Dallas County, Texas, 75214:75243, USA",32.81360219,-96.76415249
814,1269,Houston,"623, Jerry Street, Houston, Harris County, Texas, 77022, USA",29.82766078,-95.39314225
815,1270,Rockport,"198, Dove Drive, Copano Village, Aransas County, Texas, 78382, USA",28.06676335,-97.10237628
816,1271,Canton,"V Z County Road 2212, Tundra, Van Zandt County, Texas, USA",32.47405198,-95.90367996
817,1272,Palestine,"Montalba, Anderson County, Texas, USA",31.87616941,-95.6845552
818,1273,Austin,"2709, Oak Crest Avenue, Galindo, Austin, Travis County, Texas, 78704, USA",30.23830681,-97.76501527
819,1274,Port Arthur,"Park Plaza Lane, Port Arthur, Jefferson County, Texas, 77642, USA",29.91389882,-93.94519454
820,1275,Wharton,"East Caney Street, Wharton, Wharton County, Texas, 77488, USA",29.31169475,-96.09806861
821,1277,Conroe,"8172, Laughing Falcon Trail, Harper's Reserve, Lakeland, Montgomery County, Texas, 77385, USA",30.1995345,-95.44286674
822,1278,Dallas,"1505, Patterson Street, West End Historic District, Downtown PID, Dallas, Dallas County, Texas, 75202, USA",32.78335065,-96.80093419
823,1281,Austin,"5377, Tetherland Trail, Meadows at Trinity Crossing, Austin, Travis County, Texas, 78724, USA",30.28385482,-97.64784046
824,1283,Corpus Christi,"15002, Leeward Drive, Mustang-Padre Island, Corpus Christi, Nueces County, Texas, 78418, USA",27.60545558,-97.21136347
825,1284,Galveston,"1214, 11th Street, Galveston, Galveston County, Texas, 77550, USA",29.30129244,-94.77743805
826,1285,Austin,"1900, East Oltorf Street, Parker Lane, Austin, Travis County, Texas, 00787, USA",30.23163473,-97.73431754
827,1286,Houston,"Minute Maid Park, Crawford Street, Houston, Harris County, Texas, 77004, USA",29.75825406,-95.35537642
828,1287,Houston,"Justice, Beechnut Street, Meyerland Plaza, Meyerland, Houston, Harris County, Texas, 77072, USA",29.68832293,-95.46126892
829,1288,Houston,"4819, Fisk Street, Houston, Harris County, Texas, 77009, USA",29.80302604,-95.3709186
830,1289,Riviera Beach,"County Road 1155, Riviera Beach, Kleberg County, Texas, USA",27.29011761,-97.66155727
831,1290,Fort Worth,"6987, Sierra Drive, North Richland Hills, Tarrant County, Texas, 76180, USA",32.85270688,-97.23144022
832,1291,Rosenberg,"Oxbow Crossing Lane, Brazos Ranch Apartment Homes, Rosenberg, Fort Bend County, Texas, 77471, USA",29.5532858,-95.75574317
833,1292,Euless,"1351, Toplea Drive, Euless, Tarrant County, Texas, 76040, USA",32.83016744,-97.10397102
834,1293,Belton,"3141, Sarita Cove, Belton, Bell County, Texas, 76513, USA",31.09264799,-97.48065811
835,1294,Houston,"League City, Galveston County, Texas, 77565, USA",29.54065656,-95.05784855
836,1295,Dallas,"4238, Amherst Avenue, University Park, Dallas County, Texas, 75225, USA",32.85246013,-96.80735542
837,1296,Rockport,"603, Copano Cove Road, Aransas County, Texas, 78382, USA",28.06598385,-97.11097596
838,1297,Galveston,"1923, Harborside Drive, Galveston, Galveston County, Texas, 77550, USA",29.30906157,-94.79039854
839,1298,Rockport,"1879, Bay Shore Drive, Key Allegro, Rockport, Aransas County, Texas, 78382, USA",28.04033544,-97.02616373
840,1299,Bandera,"Kennady Drive, Highland Waters, Bandera County, Texas, USA",29.75171427,-99.13894707
841,1300,San Leon,"2nd Street, San Leon, Galveston County, Texas, 77395, USA",29.48996885,-94.91195447
842,1301,Dripping Springs,"Bell Springs Road, Hays County, Texas, 78620, USA",30.29428709,-98.09329793
843,1302,Houston,"West Lake Houston Parkway, Houston, Harris County, Texas, 77346, USA",29.95508619,-95.17304681
844,1303,Elgin,"Farm-to-Market Road 1704, Elgin, Bastrop County, Texas, 78621, USA",30.22557312,-97.43441786
845,1304,Houston,"4937, Ventura Lane, Houston, Harris County, Texas, 77021, USA",29.70419921,-95.33844457
846,1305,Fulshear,"5299, James Lane, Fulshear, Fort Bend County, Texas, 77441, USA",29.68027243,-95.90916249
847,1306,Frisco,"11369, Luxembourg Lane, Griffin Park, Frisco, Denton County, Texas, 75033, USA",33.1715443,-96.86286561
848,1307,Sanger,"Union Hill, Denton County, Texas, 76266, USA",33.38833704,-97.15302453
849,1309,Mabank,"120, Bluffview Drive, Henderson County, Texas, 75156, USA",32.23194307,-96.04944259
850,1310,Houston,"5382, Dora Street, Warnecke, Houston, Harris County, Texas, 77005, USA",29.72456505,-95.3962193
851,1311,Fort Worth,"3963, Carnett Court, Fort Worth, Tarrant County, Texas, 76133, USA",32.67469161,-97.37852743
852,1312,Arlington,"1799, West Lamar Boulevard, Arlington, Tarrant County, Texas, 76012, USA",32.76606237,-97.13605749
853,1313,San Antonio,"La Cantera Terrace, San Antonio, Bexar County, Texas, 78257, USA",29.60894732,-98.60611624
